[
 {
   "eva": 8002551,
   "ds100": "AELB",
   "ifopt": "de:02000:11943",
   "name": "Hamburg Elbbrücken",
   "trafficType": "RV",
   "longitude": 10.0245,
   "latitude": 53.5345,
   "operatorName": "DB Station und Service AG",
   "operatorNumber": null,
   "status": "neu"
 },
 {
   "eva": 8001944,
   "ds100": "TETN",
   "ifopt": "",
   "name": "Eutingen Nord",
   "trafficType": "RV",
   "longitude": 8.7531,
   "latitude": 48.4847,
   "operatorName": "DB Station und Service AG",
   "operatorNumber": null,
   "status": "neu"
 },
 {
   "eva": 8003074,
   "ds100": "MIA",
   "ifopt": "",
   "name": "Ingolstadt Audi",
   "trafficType": "RV",
   "longitude": 11.4074564,
   "latitude": 48.7904959,
   "operatorName": "DB Station und Service AG",
   "operatorNumber": null,
   "status": "neu"
 },
 {
   "eva": 8001723,
   "ds100": "HEBA",
   "ifopt": "",
   "name": "Einbeck Otto-Hahn-Straße",
   "trafficType": "RV",
   "longitude": 9.89290953,
   "latitude": 51.8144784,
   "operatorName": "Ilmebahn GmbH",
   "operatorNumber": null,
   "status": "neu"
 },
 {
   "eva": 8004371,
   "ds100": "KRO",
   "ifopt": "",
   "name": "Nörvenich-Rommelsheim",
   "trafficType": "nur DPN",
   "longitude": 6.547586,
   "latitude": 50.782539,
   "operatorName": "Rurtalbahn GmbH",
   "operatorNumber": null,
   "status": "neu"
 },
 {
   "eva": 8010340,
   "ds100": "DSTR",
   "ifopt": "",
   "name": "Straßgräbchen-Bernsdorf",
   "trafficType": "nur DPN",
   "longitude": 14.052047,
   "latitude": 51.361469,
   "operatorName": "",
   "operatorNumber": null,
   "status": "neu"
 },
 {
   "eva": 8001510,
   "ds100": "TDSA",
   "ifopt": "de:08237:8009:2",
   "name": "Dornstetten-Aach",
   "trafficType": "RV",
   "longitude": 8.48291,
   "latitude": 48.4733,
   "operatorName": "DB Station und Service AG",
   "operatorNumber": null,
   "status": "neu"
 },
 {
   "eva": 8001966,
   "ds100": "MFOL",
   "ifopt": "de:09187:90183",
   "name": "Feldolling",
   "trafficType": "nur DPN",
   "longitude": 11.852244,
   "latitude": 47.895336,
   "operatorName": "DB Station und Service AG",
   "operatorNumber": null,
   "status": "neu"
 },
 {
   "eva": 8002060,
   "ds100": "FFGG",
   "ifopt": "de:06412:11500",
   "name": "Frankfurt(Main)-Gateway Gardens",
   "trafficType": "RV",
   "longitude": 8.59449506,
   "latitude": 50.0565739,
   "operatorName": "DB Station und Service AG",
   "operatorNumber": null,
   "status": "neu"
 },
 {
   "eva": 8002535,
   "ds100": "EOBG",
   "ifopt": "de:05962:3517",
   "name": "Halver-Oberbrügge",
   "trafficType": "RV",
   "longitude": 7.574042,
   "latitude": 51.191867,
   "operatorName": "DB Station und Service AG",
   "operatorNumber": null,
   "status": "neu"
 },
 {
   "eva": 8003105,
   "ds100": "HJAH",
   "ifopt": "de:03461:3106",
   "name": "Jaderberg",
   "trafficType": "nur DPN",
   "longitude": 8.182909,
   "latitude": 53.339108,
   "operatorName": "DB Station und Service AG",
   "operatorNumber": null,
   "status": "neu"
 },
 {
   "eva": 8003297,
   "ds100": "EKIE",
   "ifopt": "de:05962:2677:90",
   "name": "Kierspe",
   "trafficType": "RV",
   "longitude": 7.61622906,
   "latitude": 51.1300136,
   "operatorName": "DB Station und Service AG",
   "operatorNumber": null,
   "status": "neu"
 },
 {
   "eva": 8003305,
   "ds100": "EREKK",
   "ifopt": "de:05554:37195",
   "name": "Reken-Klein Reken",
   "trafficType": "nur DPN",
   "longitude": 7.03519821,
   "latitude": 51.7870373,
   "operatorName": "DB Station und Service AG",
   "operatorNumber": null,
   "status": "neu"
 },
 {
   "eva": 8005169,
   "ds100": "MRAI",
   "ifopt": "de:09163:201",
   "name": "Rosenheim Aicherpark",
   "trafficType": "nur DPN",
   "longitude": 12.089467,
   "latitude": 47.851651,
   "operatorName": "DB Station und Service AG",
   "operatorNumber": null,
   "status": "neu"
 },
 {
   "eva": 8005933,
   "ds100": "RSFW",
   "ifopt": "de:08215:1864",
   "name": "Stettfeld-Weiher",
   "trafficType": "RV",
   "longitude": 8.6369276,
   "latitude": 49.1836249,
   "operatorName": "DB Station und Service AG",
   "operatorNumber": null,
   "status": "neu"
 },
 {
   "eva": 8011201,
   "ds100": "BFBI",
   "ifopt": "de:12061:900260009",
   "name": "Flughafen BER - Terminal 1-2",
   "trafficType": "FV",
   "longitude": 13.5119498,
   "latitude": 52.3648038,
   "operatorName": "DB Station und Service AG",
   "operatorNumber": null,
   "status": "neu"
 },
 {
   "eva": 8011404,
   "ds100": "UDO",
   "ifopt": "de:16065:8011404",
   "name": "Donndorf(Unstrut)",
   "trafficType": "nur DPN",
   "longitude": 11.376962,
   "latitude": 51.298312,
   "operatorName": "Deutsche Regionaleisenbahn GmbH",
   "operatorNumber": null,
   "status": "neu"
 },
 {
   "eva": 8011605,
   "ds100": "LBGR",
   "ifopt": "de:15089:8011605",
   "name": "Bernburg-Roschwitz",
   "trafficType": "nur DPN",
   "longitude": 11.7593,
   "latitude": 51.7811,
   "operatorName": "DB Station und Service AG",
   "operatorNumber": null,
   "status": "neu"
 },
 {
   "eva": 8012273,
   "ds100": "LLMS",
   "ifopt": "de:14713:8012273",
   "name": "Leipzig Mockauer Straße",
   "trafficType": "RV",
   "longitude": 12.4121,
   "latitude": 51.3738,
   "operatorName": "DB Station und Service AG",
   "operatorNumber": null,
   "status": "neu"
 },
 {
   "eva": 8012797,
   "ds100": "URO",
   "ifopt": "de:16065:8012797",
   "name": "Roßleben",
   "trafficType": "nur DPN",
   "longitude": 11.436302,
   "latitude": 51.297859,
   "operatorName": "Deutsche Regionaleisenbahn GmbH",
   "operatorNumber": null,
   "status": "neu"
 },
 {
   "eva": 8013241,
   "ds100": "BWAF",
   "ifopt": "de:12061:900260080",
   "name": "Waßmannsdorf",
   "trafficType": "RV",
   "longitude": 13.4635305,
   "latitude": 52.36842,
   "operatorName": "DB Station und Service AG",
   "operatorNumber": null,
   "status": "neu"
 },
 {
   "eva": 8013301,
   "ds100": "DWID",
   "ifopt": "de:14625:6905",
   "name": "Wiednitz",
   "trafficType": "nur DPN",
   "longitude": 14.039241,
   "latitude": 51.393167,
   "operatorName": "",
   "operatorNumber": null,
   "status": "neu"
 },
 {
   "eva": 8071096,
   "ds100": "WSTS",
   "ifopt": "de:12068:900205749",
   "name": "Rheinsberg Stechlinsee",
   "trafficType": "nur DPN",
   "longitude": 12.985605,
   "latitude": 53.149007,
   "operatorName": "Regio Infra Nord-Ost GmbH & Co. KG",
   "operatorNumber": null,
   "status": "neu"
 },
 {
   "eva": 8089201,
   "ds100": "BFBB",
   "ifopt": "de:12061:900260009:3",
   "name": "Flughafen BER - Terminal 1-2 (S-Bahn)",
   "trafficType": "RV",
   "longitude": 13.5119176,
   "latitude": 52.3648431,
   "operatorName": "DB Station und Service AG",
   "operatorNumber": null,
   "status": "neu"
 },
 {
   "eva": 8000001,
   "ds100": "KA",
   "ifopt": "de:05334:1008",
   "name": "Aachen Hbf",
   "trafficType": "FV",
   "longitude": 6.091499,
   "latitude": 50.7678,
   "operatorName": "DB Station und Service AG",
   "operatorNumber": 1,
   "status": ""
 },
 {
   "eva": 8000002,
   "ds100": "TA",
   "ifopt": "de:08136:1000",
   "name": "Aalen Hbf",
   "trafficType": "FV",
   "longitude": 10.096271,
   "latitude": 48.841013,
   "operatorName": "DB Station und Service AG",
   "operatorNumber": 4,
   "status": ""
 },
 {
   "eva": 8000004,
   "ds100": "HA",
   "ifopt": "de:05774:7131",
   "name": "Altenbeken",
   "trafficType": "FV",
   "longitude": 8.943319,
   "latitude": 51.766433,
   "operatorName": "DB Station und Service AG",
   "operatorNumber": 85,
   "status": ""
 },
 {
   "eva": 8000007,
   "ds100": "FALZ",
   "ifopt": "de:07331:55",
   "name": "Alzey",
   "trafficType": "RV",
   "longitude": 8.109749,
   "latitude": 49.7502,
   "operatorName": "DB Station und Service AG",
   "operatorNumber": 133,
   "status": ""
 },
 {
   "eva": 8000009,
   "ds100": "NAN",
   "ifopt": "de:09561:11000",
   "name": "Ansbach",
   "trafficType": "FV",
   "longitude": 10.578239,
   "latitude": 49.298032,
   "operatorName": "DB Station und Service AG",
   "operatorNumber": 161,
   "status": ""
 },
 {
   "eva": 8000010,
   "ds100": "NAH",
   "ifopt": "de:09661:99082",
   "name": "Aschaffenburg Hbf",
   "trafficType": "FV",
   "longitude": 9.143697,
   "latitude": 49.980557,
   "operatorName": "DB Station und Service AG",
   "operatorNumber": 187,
   "status": ""
 },
 {
   "eva": 8000011,
   "ds100": "AAG",
   "ifopt": "de:01057:3365",
   "name": "Ascheberg(Holst)",
   "trafficType": "RV",
   "longitude": 10.339481,
   "latitude": 54.148462,
   "operatorName": "DB Station und Service AG",
   "operatorNumber": 191,
   "status": ""
 },
 {
   "eva": 8000012,
   "ds100": "KAU",
   "ifopt": "de:05382:59901",
   "name": "Au(Sieg)",
   "trafficType": "RV",
   "longitude": 7.656537,
   "latitude": 50.773765,
   "operatorName": "DB Station und Service AG",
   "operatorNumber": 204,
   "status": ""
 },
 {
   "eva": 8000013,
   "ds100": "MA",
   "ifopt": "de:09761:100",
   "name": "Augsburg Hbf",
   "trafficType": "FV",
   "longitude": 10.88557,
   "latitude": 48.365441,
   "operatorName": "DB Station und Service AG",
   "operatorNumber": 220,
   "status": ""
 },
 {
   "eva": 8000014,
   "ds100": "TAU",
   "ifopt": "de:08436:1000",
   "name": "Aulendorf",
   "trafficType": "FV",
   "longitude": 9.644046,
   "latitude": 47.953052,
   "operatorName": "DB Station und Service AG",
   "operatorNumber": 226,
   "status": ""
 },
 {
   "eva": 8000015,
   "ds100": "FBA",
   "ifopt": "de:06432:8563",
   "name": "Babenhausen(Hess)",
   "trafficType": "nur DPN",
   "longitude": 8.957182,
   "latitude": 49.957963,
   "operatorName": "DB Station und Service AG",
   "operatorNumber": 238,
   "status": ""
 },
 {
   "eva": 8000016,
   "ds100": "TB",
   "ifopt": "de:08119:7600",
   "name": "Backnang",
   "trafficType": "RV",
   "longitude": 9.425989,
   "latitude": 48.942676,
   "operatorName": "DB Station und Service AG",
   "operatorNumber": 244,
   "status": ""
 },
 {
   "eva": 8000017,
   "ds100": "TBF",
   "ifopt": "de:08125:519",
   "name": "Bad Friedrichshall Hbf",
   "trafficType": "RV",
   "longitude": 9.199771,
   "latitude": 49.231571,
   "operatorName": "DB Station und Service AG",
   "operatorNumber": 277,
   "status": ""
 },
 {
   "eva": 8000019,
   "ds100": "HBHA",
   "ifopt": "de:03153:4946",
   "name": "Bad Harzburg",
   "trafficType": "RV",
   "longitude": 10.555444,
   "latitude": 51.888116,
   "operatorName": "DB Station und Service AG",
   "operatorNumber": 281,
   "status": ""
 },
 {
   "eva": 8000020,
   "ds100": "FBHF",
   "ifopt": "de:06632:202026",
   "name": "Bad Hersfeld",
   "trafficType": "FV",
   "longitude": 9.716182,
   "latitude": 50.869632,
   "operatorName": "DB Station und Service AG",
   "operatorNumber": 282,
   "status": ""
 },
 {
   "eva": 8000021,
   "ds100": "SBKN",
   "ifopt": "de:07133:8178",
   "name": "Bad Kreuznach",
   "trafficType": "RV",
   "longitude": 7.866435,
   "latitude": 49.842399,
   "operatorName": "DB Station und Service AG",
   "operatorNumber": 296,
   "status": ""
 },
 {
   "eva": 8000022,
   "ds100": "HNDF",
   "ifopt": "de:03257:505",
   "name": "Bad Nenndorf",
   "trafficType": "RV",
   "longitude": 9.378603,
   "latitude": 52.343735,
   "operatorName": "DB Station und Service AG",
   "operatorNumber": 311,
   "status": ""
 },
 {
   "eva": 8000023,
   "ds100": "AO",
   "ifopt": "de:01062:37979",
   "name": "Bad Oldesloe",
   "trafficType": "RV",
   "longitude": 10.3825414,
   "latitude": 53.8053902,
   "operatorName": "DB Station und Service AG",
   "operatorNumber": 317,
   "status": ""
 },
 {
   "eva": 8000025,
   "ds100": "NBA",
   "ifopt": "de:09461:20010",
   "name": "Bamberg",
   "trafficType": "FV",
   "longitude": 10.899489,
   "latitude": 49.900759,
   "operatorName": "DB Station und Service AG",
   "operatorNumber": 393,
   "status": ""
 },
 {
   "eva": 8000026,
   "ds100": "RB",
   "ifopt": "ch:23005:6",
   "name": "Basel Bad Bf",
   "trafficType": "FV",
   "longitude": 7.607805,
   "latitude": 47.567288,
   "operatorName": "Schweizerischen Bundesbahnen",
   "operatorNumber": null,
   "status": ""
 },
 {
   "eva": 8000027,
   "ds100": "NSCH",
   "ifopt": "de:09376:7410",
   "name": "Schwandorf",
   "trafficType": "RV",
   "longitude": 12.103802,
   "latitude": 49.3263803,
   "operatorName": "DB Station und Service AG",
   "operatorNumber": 5710,
   "status": ""
 },
 {
   "eva": 8000028,
   "ds100": "NBY",
   "ifopt": "de:09462:22000",
   "name": "Bayreuth Hbf",
   "trafficType": "RV",
   "longitude": 11.579985,
   "latitude": 49.949616,
   "operatorName": "DB Station und Service AG",
   "operatorNumber": 439,
   "status": ""
 },
 {
   "eva": 8000029,
   "ds100": "FB",
   "ifopt": "de:06632:202110",
   "name": "Bebra",
   "trafficType": "FV",
   "longitude": 9.797788,
   "latitude": 50.969568,
   "operatorName": "DB Station und Service AG",
   "operatorNumber": 443,
   "status": ""
 },
 {
   "eva": 8000030,
   "ds100": "KBE",
   "ifopt": "de:05362:89101",
   "name": "Bedburg(Erft)",
   "trafficType": "RV",
   "longitude": 6.572615,
   "latitude": 50.987478,
   "operatorName": "DB Station und Service AG",
   "operatorNumber": 447,
   "status": ""
 },
 {
   "eva": 8000031,
   "ds100": "FBH",
   "ifopt": "de:06431:236",
   "name": "Bensheim",
   "trafficType": "FV",
   "longitude": 8.616717,
   "latitude": 49.681329,
   "operatorName": "DB Station und Service AG",
   "operatorNumber": 488,
   "status": ""
 },
 {
   "eva": 8000032,
   "ds100": "NS",
   "ifopt": "de:09662:28058",
   "name": "Schweinfurt Hbf",
   "trafficType": "RV",
   "longitude": 10.212919,
   "latitude": 50.035313,
   "operatorName": "DB Station und Service AG",
   "operatorNumber": 5742,
   "status": ""
 },
 {
   "eva": 8000033,
   "ds100": "KSWE",
   "ifopt": "de:05954:8174",
   "name": "Schwelm",
   "trafficType": "RV",
   "longitude": 7.289681,
   "latitude": 51.290526,
   "operatorName": "DB Station und Service AG",
   "operatorNumber": 5749,
   "status": ""
 },
 {
   "eva": 8000034,
   "ds100": "EBZ",
   "ifopt": "de:07132:090171",
   "name": "Betzdorf(Sieg)",
   "trafficType": "RV",
   "longitude": 7.87005,
   "latitude": 50.789294,
   "operatorName": "DB Station und Service AG",
   "operatorNumber": 597,
   "status": ""
 },
 {
   "eva": 8000036,
   "ds100": "EBILP",
   "ifopt": "de:05711:5500",
   "name": "Bielefeld Hbf",
   "trafficType": "FV",
   "longitude": 8.532722,
   "latitude": 52.029261,
   "operatorName": "DB Station und Service AG",
   "operatorNumber": 622,
   "status": ""
 },
 {
   "eva": 8000037,
   "ds100": "ESRT",
   "ifopt": "de:05978:63583",
   "name": "Schwerte(Ruhr)",
   "trafficType": "RV",
   "longitude": 7.55896,
   "latitude": 51.442281,
   "operatorName": "DB Station und Service AG",
   "operatorNumber": 5763,
   "status": ""
 },
 {
   "eva": 8000038,
   "ds100": "TBM",
   "ifopt": "de:08118:1400",
   "name": "Bietigheim-Bissingen",
   "trafficType": "RV",
   "longitude": 9.137557,
   "latitude": 48.947933,
   "operatorName": "DB Station und Service AG",
   "operatorNumber": 636,
   "status": ""
 },
 {
   "eva": 8000039,
   "ds100": "FBGK",
   "ifopt": "de:07339:8183",
   "name": "Bingen(Rhein) Hbf",
   "trafficType": "FV",
   "longitude": 7.884263,
   "latitude": 49.968729,
   "operatorName": "DB Station und Service AG",
   "operatorNumber": 649,
   "status": ""
 },
 {
   "eva": 8000041,
   "ds100": "EBO",
   "ifopt": "de:05911:5194",
   "name": "Bochum Hbf",
   "trafficType": "FV",
   "longitude": 7.223275,
   "latitude": 51.478609,
   "operatorName": "DB Station und Service AG",
   "operatorNumber": 724,
   "status": ""
 },
 {
   "eva": 8000042,
   "ds100": "RSE",
   "ifopt": "de:08225:8203",
   "name": "Seckach",
   "trafficType": "RV",
   "longitude": 9.338469,
   "latitude": 49.441157,
   "operatorName": "DB Station und Service AG",
   "operatorNumber": 5774,
   "status": ""
 },
 {
   "eva": 8000043,
   "ds100": "HSSN",
   "ifopt": "de:03153:5780",
   "name": "Seesen",
   "trafficType": "RV",
   "longitude": 10.173898,
   "latitude": 51.887263,
   "operatorName": "DB Station und Service AG",
   "operatorNumber": 5797,
   "status": ""
 },
 {
   "eva": 8000044,
   "ds100": "KB",
   "ifopt": "de:05314:61101",
   "name": "Bonn Hbf",
   "trafficType": "FV",
   "longitude": 7.097136,
   "latitude": 50.732008,
   "operatorName": "DB Station und Service AG",
   "operatorNumber": 767,
   "status": ""
 },
 {
   "eva": 8000045,
   "ds100": "KBOP",
   "ifopt": "de:07140:060039",
   "name": "Boppard Hbf",
   "trafficType": "FV",
   "longitude": 7.586102,
   "latitude": 50.231413,
   "operatorName": "DB Station und Service AG",
   "operatorNumber": 776,
   "status": ""
 },
 {
   "eva": 8000046,
   "ds100": "ESIE",
   "ifopt": "de:05970:10097",
   "name": "Siegen Hbf",
   "trafficType": "RV",
   "longitude": 8.016508,
   "latitude": 50.875939,
   "operatorName": "DB Station und Service AG",
   "operatorNumber": 5842,
   "status": ""
 },
 {
   "eva": 8000047,
   "ds100": "EBTH.EBTHP",
   "ifopt": "de:05512:3335",
   "name": "Bottrop Hbf",
   "trafficType": "RV",
   "longitude": 6.936684,
   "latitude": 51.50945,
   "operatorName": "DB Station und Service AG",
   "operatorNumber": 804,
   "status": ""
 },
 {
   "eva": 8000048,
   "ds100": "EBWE",
   "ifopt": "de:05711:5059",
   "name": "Brackwede",
   "trafficType": "RV",
   "longitude": 8.498426,
   "latitude": 51.997378,
   "operatorName": "DB Station und Service AG",
   "operatorNumber": 811,
   "status": ""
 },
 {
   "eva": 8000049,
   "ds100": "HBS",
   "ifopt": "de:03101:178",
   "name": "Braunschweig Hbf",
   "trafficType": "FV",
   "longitude": 10.540295,
   "latitude": 52.252218,
   "operatorName": "DB Station und Service AG",
   "operatorNumber": 835,
   "status": ""
 },
 {
   "eva": 8000050,
   "ds100": "HB",
   "ifopt": "de:04011:13927",
   "name": "Bremen Hbf",
   "trafficType": "FV",
   "longitude": 8.813834,
   "latitude": 53.083481,
   "operatorName": "DB Station und Service AG",
   "operatorNumber": 855,
   "status": ""
 },
 {
   "eva": 8000051,
   "ds100": "HBH",
   "ifopt": "de:04012:14418",
   "name": "Bremerhaven Hbf",
   "trafficType": "RV",
   "longitude": 8.599555,
   "latitude": 53.534912,
   "operatorName": "DB Station und Service AG",
   "operatorNumber": 868,
   "status": ""
 },
 {
   "eva": 8000053,
   "ds100": "RBT",
   "ifopt": "de:08215:1551",
   "name": "Bretten",
   "trafficType": "RV",
   "longitude": 8.693448,
   "latitude": 49.0369,
   "operatorName": "DB Station und Service AG",
   "operatorNumber": 875,
   "status": ""
 },
 {
   "eva": 8000054,
   "ds100": "EBRW",
   "ifopt": "de:05958:60005",
   "name": "Brilon Wald",
   "trafficType": "RV",
   "longitude": 8.576073,
   "latitude": 51.349159,
   "operatorName": "DB Station und Service AG",
   "operatorNumber": 888,
   "status": ""
 },
 {
   "eva": 8000055,
   "ds100": "RBR",
   "ifopt": "de:08215:1856",
   "name": "Bruchsal",
   "trafficType": "FV",
   "longitude": 8.589649,
   "latitude": 49.124622,
   "operatorName": "DB Station und Service AG",
   "operatorNumber": 904,
   "status": ""
 },
 {
   "eva": 8000056,
   "ds100": "ABLZ",
   "ifopt": "de:03353:8000056",
   "name": "Buchholz(Nordheide)",
   "trafficType": "nur DPN",
   "longitude": 9.876266,
   "latitude": 53.324683,
   "operatorName": "DB Station und Service AG",
   "operatorNumber": 941,
   "status": ""
 },
 {
   "eva": 8000057,
   "ds100": "MBU",
   "ifopt": "de:09777:1000",
   "name": "Buchloe",
   "trafficType": "FV",
   "longitude": 10.716217,
   "latitude": 48.033723,
   "operatorName": "DB Station und Service AG",
   "operatorNumber": 944,
   "status": ""
 },
 {
   "eva": 8000058,
   "ds100": "ABCH",
   "ifopt": "de:01053:8000058",
   "name": "Büchen",
   "trafficType": "FV",
   "longitude": 10.623298,
   "latitude": 53.474972,
   "operatorName": "DB Station und Service AG",
   "operatorNumber": 929,
   "status": ""
 },
 {
   "eva": 8000059,
   "ds100": "HBDE",
   "ifopt": "de:05758:1120",
   "name": "Bünde(Westf)",
   "trafficType": "FV",
   "longitude": 8.573876,
   "latitude": 52.202075,
   "operatorName": "DB Station und Service AG",
   "operatorNumber": 968,
   "status": ""
 },
 {
   "eva": 8000060,
   "ds100": "KSIH",
   "ifopt": "de:07143:040001",
   "name": "Siershahn",
   "trafficType": "nur DPN",
   "longitude": 7.77138,
   "latitude": 50.485857,
   "operatorName": "DB Station und Service AG",
   "operatorNumber": 5848,
   "status": ""
 },
 {
   "eva": 8000061,
   "ds100": "FBNG",
   "ifopt": "de:06535:11187",
   "name": "Burg-u. Nieder Gemünden",
   "trafficType": "nur DPN",
   "longitude": 9.047604,
   "latitude": 50.691113,
   "operatorName": "DB Station und Service AG",
   "operatorNumber": 978,
   "status": ""
 },
 {
   "eva": 8000062,
   "ds100": "EBFT",
   "ifopt": "de:05566:16548",
   "name": "Steinfurt-Burgsteinfurt",
   "trafficType": "RV",
   "longitude": 7.32934,
   "latitude": 52.147384,
   "operatorName": "DB Station und Service AG",
   "operatorNumber": 997,
   "status": ""
 },
 {
   "eva": 8000063,
   "ds100": "TCW",
   "ifopt": "de:08235:9030",
   "name": "Calw",
   "trafficType": "RV",
   "longitude": 8.741854,
   "latitude": 48.714682,
   "operatorName": "DB Station und Service AG",
   "operatorNumber": 1025,
   "status": ""
 },
 {
   "eva": 8000064,
   "ds100": "HC",
   "ifopt": "de:03351:50",
   "name": "Celle",
   "trafficType": "FV",
   "longitude": 10.0626343,
   "latitude": 52.6209628,
   "operatorName": "DB Station und Service AG",
   "operatorNumber": 1036,
   "status": ""
 },
 {
   "eva": 8000065,
   "ds100": "FCOE",
   "ifopt": "de:06534:11080",
   "name": "Cölbe",
   "trafficType": "RV",
   "longitude": 8.787365,
   "latitude": 50.848159,
   "operatorName": "DB Station und Service AG",
   "operatorNumber": 1063,
   "status": ""
 },
 {
   "eva": 8000066,
   "ds100": "ECMF",
   "ifopt": "de:05558:16602",
   "name": "Coesfeld(Westf)",
   "trafficType": "RV",
   "longitude": 7.16388,
   "latitude": 51.939431,
   "operatorName": "DB Station und Service AG",
   "operatorNumber": 1062,
   "status": ""
 },
 {
   "eva": 8000067,
   "ds100": "TC",
   "ifopt": "de:08127:21001",
   "name": "Crailsheim",
   "trafficType": "FV",
   "longitude": 10.064326,
   "latitude": 49.137872,
   "operatorName": "DB Station und Service AG",
   "operatorNumber": 1079,
   "status": ""
 },
 {
   "eva": 8000068,
   "ds100": "FD",
   "ifopt": "de:06411:4734",
   "name": "Darmstadt Hbf",
   "trafficType": "FV",
   "longitude": 8.629636,
   "latitude": 49.872503,
   "operatorName": "DB Station und Service AG",
   "operatorNumber": 1126,
   "status": ""
 },
 {
   "eva": 8000069,
   "ds100": "TSIG",
   "ifopt": "de:08437:42111",
   "name": "Sigmaringen",
   "trafficType": "RV",
   "longitude": 9.221851,
   "latitude": 48.086984,
   "operatorName": "DB Station und Service AG",
   "operatorNumber": 5853,
   "status": ""
 },
 {
   "eva": 8000070,
   "ds100": "HD",
   "ifopt": "de:03401:19646",
   "name": "Delmenhorst",
   "trafficType": "FV",
   "longitude": 8.629758,
   "latitude": 53.052792,
   "operatorName": "DB Station und Service AG",
   "operatorNumber": 1159,
   "status": ""
 },
 {
   "eva": 8000071,
   "ds100": "HDBG",
   "ifopt": "de:03254:21906",
   "name": "Derneburg(Han)",
   "trafficType": "nur DPN",
   "longitude": 10.143719,
   "latitude": 52.096851,
   "operatorName": "DB Station und Service AG",
   "operatorNumber": 1172,
   "status": ""
 },
 {
   "eva": 8000072,
   "ds100": "MSBI",
   "ifopt": "de:09277:80490",
   "name": "Simbach(Inn)",
   "trafficType": "RV",
   "longitude": 13.023012,
   "latitude": 48.262726,
   "operatorName": "DB RegioNetz Infrastruktur GmbH",
   "operatorNumber": null,
   "status": ""
 },
 {
   "eva": 8000073,
   "ds100": "RSI",
   "ifopt": "de:08335:6588",
   "name": "Singen(Hohentwiel)",
   "trafficType": "FV",
   "longitude": 8.840383,
   "latitude": 47.758438,
   "operatorName": "DB Station und Service AG",
   "operatorNumber": 5865,
   "status": ""
 },
 {
   "eva": 8000074,
   "ds100": "FDIL",
   "ifopt": "de:06532:11005",
   "name": "Dillenburg",
   "trafficType": "RV",
   "longitude": 8.294088,
   "latitude": 50.734883,
   "operatorName": "DB Station und Service AG",
   "operatorNumber": 1214,
   "status": ""
 },
 {
   "eva": 8000075,
   "ds100": "SDL",
   "ifopt": "de:10044:8000075",
   "name": "Dillingen(Saar)",
   "trafficType": "RV",
   "longitude": 6.72215,
   "latitude": 49.35271,
   "operatorName": "DB Station und Service AG",
   "operatorNumber": 1216,
   "status": ""
 },
 {
   "eva": 8000076,
   "ds100": "ESOT",
   "ifopt": "de:05974:11246",
   "name": "Soest",
   "trafficType": "FV",
   "longitude": 8.104589,
   "latitude": 51.578419,
   "operatorName": "DB Station und Service AG",
   "operatorNumber": 5876,
   "status": ""
 },
 {
   "eva": 8000077,
   "ds100": "RDO",
   "ifopt": "de:08326:6537",
   "name": "Donaueschingen",
   "trafficType": "FV",
   "longitude": 8.498919,
   "latitude": 47.947786,
   "operatorName": "DB Station und Service AG",
   "operatorNumber": 1264,
   "status": ""
 },
 {
   "eva": 8000078,
   "ds100": "MDT",
   "ifopt": "de:09779:5500",
   "name": "Donauwörth",
   "trafficType": "FV",
   "longitude": 10.771443,
   "latitude": 48.714026,
   "operatorName": "DB Station und Service AG",
   "operatorNumber": 1265,
   "status": ""
 },
 {
   "eva": 8000080,
   "ds100": "EDO.EDO N",
   "ifopt": "de:05913:131",
   "name": "Dortmund Hbf",
   "trafficType": "FV",
   "longitude": 7.45929,
   "latitude": 51.517896,
   "operatorName": "DB Station und Service AG",
   "operatorNumber": 1289,
   "status": ""
 },
 {
   "eva": 8000081,
   "ds100": "EDDP.EDDPH.EDDPT",
   "ifopt": "de:05913:196",
   "name": "Dortmund-Dorstfeld",
   "trafficType": "RV",
   "longitude": 7.424864,
   "latitude": 51.509376,
   "operatorName": "DB Station und Service AG",
   "operatorNumber": 1304,
   "status": ""
 },
 {
   "eva": 8000082,
   "ds100": "KDFF.KDFFH",
   "ifopt": "de:05111:18488",
   "name": "Düsseldorf Flughafen",
   "trafficType": "FV",
   "longitude": 6.786836,
   "latitude": 51.292009,
   "operatorName": "DB Station und Service AG",
   "operatorNumber": 1400,
   "status": ""
 },
 {
   "eva": 8000083,
   "ds100": "EDUL.EDULH",
   "ifopt": "de:05558:15351",
   "name": "Dülmen",
   "trafficType": "RV",
   "longitude": 7.295765,
   "latitude": 51.827676,
   "operatorName": "DB Station und Service AG",
   "operatorNumber": 1390,
   "status": ""
 },
 {
   "eva": 8000084,
   "ds100": "KDN.KDN P",
   "ifopt": "de:05358:2286",
   "name": "Düren",
   "trafficType": "FV",
   "longitude": 6.482451,
   "latitude": 50.809517,
   "operatorName": "DB Station und Service AG",
   "operatorNumber": 1392,
   "status": ""
 },
 {
   "eva": 8000085,
   "ds100": "KD",
   "ifopt": "de:05111:18235",
   "name": "Düsseldorf Hbf",
   "trafficType": "FV",
   "longitude": 6.794319,
   "latitude": 51.219962,
   "operatorName": "DB Station und Service AG",
   "operatorNumber": 1401,
   "status": ""
 },
 {
   "eva": 8000086,
   "ds100": "EDG",
   "ifopt": "de:05112:16032",
   "name": "Duisburg Hbf",
   "trafficType": "FV",
   "longitude": 6.775903,
   "latitude": 51.429785,
   "operatorName": "DB Station und Service AG",
   "operatorNumber": 1374,
   "status": ""
 },
 {
   "eva": 8000087,
   "ds100": "KSO",
   "ifopt": "de:05122:13800",
   "name": "Solingen Hbf",
   "trafficType": "FV",
   "longitude": 7.004187,
   "latitude": 51.160766,
   "operatorName": "DB Station und Service AG",
   "operatorNumber": 5882,
   "status": ""
 },
 {
   "eva": 8000088,
   "ds100": "HSO",
   "ifopt": "de:03358:85426",
   "name": "Soltau(Han)",
   "trafficType": "nur DPN",
   "longitude": 9.831109,
   "latitude": 52.983017,
   "operatorName": "DB Station und Service AG",
   "operatorNumber": 5892,
   "status": ""
 },
 {
   "eva": 8000089,
   "ds100": "AST",
   "ifopt": "de:03359:8000089",
   "name": "Stade",
   "trafficType": "RV",
   "longitude": 9.477008,
   "latitude": 53.596143,
   "operatorName": "DB Station und Service AG",
   "operatorNumber": 5950,
   "status": ""
 },
 {
   "eva": 8000090,
   "ds100": "HEBG",
   "ifopt": "de:06636:206285",
   "name": "Eichenberg",
   "trafficType": "RV",
   "longitude": 9.921482,
   "latitude": 51.374823,
   "operatorName": "DB Station und Service AG",
   "operatorNumber": 1499,
   "status": ""
 },
 {
   "eva": 8000091,
   "ds100": "NSTN",
   "ifopt": "de:09575:14350",
   "name": "Steinach(b Rothenburg ob der Tauber)",
   "trafficType": "FV",
   "longitude": 10.273535,
   "latitude": 49.453218,
   "operatorName": "DB Station und Service AG",
   "operatorNumber": 5981,
   "status": ""
 },
 {
   "eva": 8000092,
   "ds100": "AEL",
   "ifopt": "de:01056:97960",
   "name": "Elmshorn",
   "trafficType": "FV",
   "longitude": 9.659408,
   "latitude": 53.754025,
   "operatorName": "DB Station und Service AG",
   "operatorNumber": 1558,
   "status": ""
 },
 {
   "eva": 8000093,
   "ds100": "HELZ",
   "ifopt": "de:03254:21616",
   "name": "Elze(Han)",
   "trafficType": "FV",
   "longitude": 9.746894,
   "latitude": 52.120147,
   "operatorName": "DB Station und Service AG",
   "operatorNumber": 1577,
   "status": ""
 },
 {
   "eva": 8000094,
   "ds100": "KENR",
   "ifopt": "de:07138:10110",
   "name": "Engers",
   "trafficType": "RV",
   "longitude": 7.546827,
   "latitude": 50.42598,
   "operatorName": "DB Station und Service AG",
   "operatorNumber": 1599,
   "status": ""
 },
 {
   "eva": 8000095,
   "ds100": "NST",
   "ifopt": "de:09263:2600",
   "name": "Straubing",
   "trafficType": "FV",
   "longitude": 12.574094,
   "latitude": 48.876978,
   "operatorName": "DB Station und Service AG",
   "operatorNumber": 6056,
   "status": ""
 },
 {
   "eva": 8000096,
   "ds100": "TS",
   "ifopt": "de:08111:6115",
   "name": "Stuttgart Hbf",
   "trafficType": "FV",
   "longitude": 9.181635,
   "latitude": 48.784084,
   "operatorName": "DB Station und Service AG",
   "operatorNumber": 6071,
   "status": ""
 },
 {
   "eva": 8000098,
   "ds100": "EE",
   "ifopt": "de:05113:9289",
   "name": "Essen Hbf",
   "trafficType": "FV",
   "longitude": 7.014793,
   "latitude": 51.451355,
   "operatorName": "DB Station und Service AG",
   "operatorNumber": 1690,
   "status": ""
 },
 {
   "eva": 8000099,
   "ds100": "EEST",
   "ifopt": "de:05113:9582",
   "name": "Essen-Steele",
   "trafficType": "RV",
   "longitude": 7.075552,
   "latitude": 51.450684,
   "operatorName": "DB Station und Service AG",
   "operatorNumber": 1710,
   "status": ""
 },
 {
   "eva": 8000100,
   "ds100": "KEU",
   "ifopt": "de:05366:72101",
   "name": "Euskirchen",
   "trafficType": "RV",
   "longitude": 6.792193,
   "latitude": 50.65776,
   "operatorName": "DB Station und Service AG",
   "operatorNumber": 1734,
   "status": ""
 },
 {
   "eva": 8000101,
   "ds100": "TET",
   "ifopt": "de:08237:7965",
   "name": "Eutingen im Gäu",
   "trafficType": "FV",
   "longitude": 8.782236,
   "latitude": 48.479952,
   "operatorName": "DB Station und Service AG",
   "operatorNumber": 1738,
   "status": ""
 },
 {
   "eva": 8000102,
   "ds100": "EFP",
   "ifopt": "de:05966:11047",
   "name": "Finnentrop",
   "trafficType": "nur DPN",
   "longitude": 7.964563,
   "latitude": 51.173048,
   "operatorName": "DB Station und Service AG",
   "operatorNumber": 1793,
   "status": ""
 },
 {
   "eva": 8000103,
   "ds100": "AF",
   "ifopt": "de:01001:27253",
   "name": "Flensburg",
   "trafficType": "FV",
   "longitude": 9.436526,
   "latitude": 54.774039,
   "operatorName": "DB Station und Service AG",
   "operatorNumber": 1810,
   "status": ""
 },
 {
   "eva": 8000104,
   "ds100": "FFRK",
   "ifopt": "de:06635:205326",
   "name": "Frankenberg(Eder)",
   "trafficType": "RV",
   "longitude": 8.789181,
   "latitude": 51.054565,
   "operatorName": "DB RegioNetz Infrastruktur GmbH",
   "operatorNumber": null,
   "status": ""
 },
 {
   "eva": 8000105,
   "ds100": "FF",
   "ifopt": "de:06412:10",
   "name": "Frankfurt(Main)Hbf",
   "trafficType": "FV",
   "longitude": 8.663789,
   "latitude": 50.107145,
   "operatorName": "DB Station und Service AG",
   "operatorNumber": 1866,
   "status": ""
 },
 {
   "eva": 8000106,
   "ds100": "FHOE",
   "ifopt": "de:06412:1008",
   "name": "Frankfurt-Höchst",
   "trafficType": "RV",
   "longitude": 8.54237,
   "latitude": 50.102634,
   "operatorName": "DB Station und Service AG",
   "operatorNumber": 1872,
   "status": ""
 },
 {
   "eva": 8000107,
   "ds100": "RF",
   "ifopt": "de:08311:6508",
   "name": "Freiburg(Breisgau) Hbf",
   "trafficType": "FV",
   "longitude": 7.84117,
   "latitude": 47.997697,
   "operatorName": "DB Station und Service AG",
   "operatorNumber": 1893,
   "status": ""
 },
 {
   "eva": 8000108,
   "ds100": "MFL",
   "ifopt": "de:09172:42293",
   "name": "Freilassing",
   "trafficType": "FV",
   "longitude": 12.977193,
   "latitude": 47.836916,
   "operatorName": "DB Station und Service AG",
   "operatorNumber": 1906,
   "status": ""
 },
 {
   "eva": 8000110,
   "ds100": "TFS",
   "ifopt": "de:08237:1050",
   "name": "Freudenstadt Hbf",
   "trafficType": "RV",
   "longitude": 8.428803,
   "latitude": 48.460322,
   "operatorName": "DB Station und Service AG",
   "operatorNumber": 1921,
   "status": ""
 },
 {
   "eva": 8000111,
   "ds100": "FFG",
   "ifopt": "de:06440:6401",
   "name": "Friedberg(Hess)",
   "trafficType": "FV",
   "longitude": 8.762056,
   "latitude": 50.332606,
   "operatorName": "DB Station und Service AG",
   "operatorNumber": 1930,
   "status": ""
 },
 {
   "eva": 8000112,
   "ds100": "TF",
   "ifopt": "de:08435:44002",
   "name": "Friedrichshafen Stadt",
   "trafficType": "FV",
   "longitude": 9.4739,
   "latitude": 47.653224,
   "operatorName": "DB Station und Service AG",
   "operatorNumber": 1947,
   "status": ""
 },
 {
   "eva": 8000113,
   "ds100": "EFOE",
   "ifopt": "de:05978:32759",
   "name": "Fröndenberg",
   "trafficType": "RV",
   "longitude": 7.762198,
   "latitude": 51.471254,
   "operatorName": "DB Station und Service AG",
   "operatorNumber": 1969,
   "status": ""
 },
 {
   "eva": 8000114,
   "ds100": "NF",
   "ifopt": "de:09563:2110",
   "name": "Fürth(Bay)Hbf",
   "trafficType": "FV",
   "longitude": 10.989988,
   "latitude": 49.469707,
   "operatorName": "DB Station und Service AG",
   "operatorNumber": 1984,
   "status": ""
 },
 {
   "eva": 8000115,
   "ds100": "FFU",
   "ifopt": "de:06631:11049",
   "name": "Fulda",
   "trafficType": "FV",
   "longitude": 9.683977,
   "latitude": 50.554723,
   "operatorName": "DB Station und Service AG",
   "operatorNumber": 1973,
   "status": ""
 },
 {
   "eva": 8000116,
   "ds100": "MTS",
   "ifopt": "de:09189:41179",
   "name": "Traunstein",
   "trafficType": "FV",
   "longitude": 12.638801,
   "latitude": 47.869727,
   "operatorName": "DB Station und Service AG",
   "operatorNumber": 6240,
   "status": ""
 },
 {
   "eva": 8000117,
   "ds100": "FGEL",
   "ifopt": "de:06435:11058",
   "name": "Gelnhausen",
   "trafficType": "RV",
   "longitude": 9.189278,
   "latitude": 50.196343,
   "operatorName": "DB Station und Service AG",
   "operatorNumber": 2051,
   "status": ""
 },
 {
   "eva": 8000118,
   "ds100": "EG",
   "ifopt": "de:05513:5613",
   "name": "Gelsenkirchen Hbf",
   "trafficType": "FV",
   "longitude": 7.102455,
   "latitude": 51.504903,
   "operatorName": "DB Station und Service AG",
   "operatorNumber": 2052,
   "status": ""
 },
 {
   "eva": 8000119,
   "ds100": "MGE",
   "ifopt": "de:09181:502",
   "name": "Geltendorf",
   "trafficType": "RV",
   "longitude": 11.0374552,
   "latitude": 48.1059912,
   "operatorName": "DB Station und Service AG",
   "operatorNumber": 2058,
   "status": ""
 },
 {
   "eva": 8000120,
   "ds100": "NGM",
   "ifopt": "de:09677:28001",
   "name": "Gemünden(Main)",
   "trafficType": "RV",
   "longitude": 9.699894,
   "latitude": 50.050018,
   "operatorName": "DB Station und Service AG",
   "operatorNumber": 2060,
   "status": ""
 },
 {
   "eva": 8000121,
   "ds100": "FGHO",
   "ifopt": "de:07339:8190",
   "name": "Gensingen-Horrweiler",
   "trafficType": "RV",
   "longitude": 7.938188,
   "latitude": 49.89826,
   "operatorName": "DB Station und Service AG",
   "operatorNumber": 2064,
   "status": ""
 },
 {
   "eva": 8000122,
   "ds100": "MTL",
   "ifopt": "de:09577:16200",
   "name": "Treuchtlingen",
   "trafficType": "FV",
   "longitude": 10.908159,
   "latitude": 48.961267,
   "operatorName": "DB Station und Service AG",
   "operatorNumber": 6252,
   "status": ""
 },
 {
   "eva": 8000123,
   "ds100": "SGR",
   "ifopt": "de:07233:30303",
   "name": "Gerolstein",
   "trafficType": "RV",
   "longitude": 6.660372,
   "latitude": 50.224006,
   "operatorName": "DB Station und Service AG",
   "operatorNumber": 2099,
   "status": ""
 },
 {
   "eva": 8000124,
   "ds100": "FG",
   "ifopt": "de:06531:11016",
   "name": "Gießen",
   "trafficType": "FV",
   "longitude": 8.661462,
   "latitude": 50.579059,
   "operatorName": "DB Station und Service AG",
   "operatorNumber": 2120,
   "status": ""
 },
 {
   "eva": 8000125,
   "ds100": "EGBW",
   "ifopt": "de:05562:3202",
   "name": "Gladbeck West",
   "trafficType": "RV",
   "longitude": 6.976389,
   "latitude": 51.574922,
   "operatorName": "DB Station und Service AG",
   "operatorNumber": 2133,
   "status": ""
 },
 {
   "eva": 8000126,
   "ds100": "FGE",
   "ifopt": "de:06433:6802",
   "name": "Riedstadt-Goddelau",
   "trafficType": "RV",
   "longitude": 8.489187,
   "latitude": 49.83323,
   "operatorName": "DB Station und Service AG",
   "operatorNumber": 2161,
   "status": ""
 },
 {
   "eva": 8000127,
   "ds100": "TGO",
   "ifopt": "de:08117:154",
   "name": "Göppingen",
   "trafficType": "FV",
   "longitude": 9.651969,
   "latitude": 48.700027,
   "operatorName": "DB Station und Service AG",
   "operatorNumber": 2189,
   "status": ""
 },
 {
   "eva": 8000128,
   "ds100": "HG",
   "ifopt": "de:03152:33817",
   "name": "Göttingen",
   "trafficType": "FV",
   "longitude": 9.926072,
   "latitude": 51.536815,
   "operatorName": "DB Station und Service AG",
   "operatorNumber": 2218,
   "status": ""
 },
 {
   "eva": 8000129,
   "ds100": "FTS",
   "ifopt": "de:06634:204662",
   "name": "Treysa",
   "trafficType": "FV",
   "longitude": 9.185673,
   "latitude": 50.910661,
   "operatorName": "DB Station und Service AG",
   "operatorNumber": 6256,
   "status": ""
 },
 {
   "eva": 8000130,
   "ds100": "HGS",
   "ifopt": "de:03153:5982",
   "name": "Goslar",
   "trafficType": "RV",
   "longitude": 10.421436,
   "latitude": 51.911573,
   "operatorName": "DB Station und Service AG",
   "operatorNumber": 2202,
   "status": ""
 },
 {
   "eva": 8000131,
   "ds100": "RGN",
   "ifopt": "de:08215:32585",
   "name": "Graben-Neudorf",
   "trafficType": "RV",
   "longitude": 8.49063,
   "latitude": 49.161797,
   "operatorName": "DB Station und Service AG",
   "operatorNumber": 2223,
   "status": ""
 },
 {
   "eva": 8000132,
   "ds100": "FGR",
   "ifopt": "de:06434:6308",
   "name": "Grävenwiesbach",
   "trafficType": "nur DPN",
   "longitude": 8.458553,
   "latitude": 50.382239,
   "operatorName": "Hessische Landesbahn Basis",
   "operatorNumber": null,
   "status": ""
 },
 {
   "eva": 8000133,
   "ds100": "KGRB",
   "ifopt": "de:05162:20001",
   "name": "Grevenbroich",
   "trafficType": "RV",
   "longitude": 6.580447,
   "latitude": 51.093701,
   "operatorName": "DB Station und Service AG",
   "operatorNumber": 2263,
   "status": ""
 },
 {
   "eva": 8000134,
   "ds100": "STR",
   "ifopt": "de:07211:1318",
   "name": "Trier Hbf",
   "trafficType": "FV",
   "longitude": 6.652453,
   "latitude": 49.756846,
   "operatorName": "DB Station und Service AG",
   "operatorNumber": 6264,
   "status": ""
 },
 {
   "eva": 8000135,
   "ds100": "KT",
   "ifopt": "de:05382:54701",
   "name": "Troisdorf",
   "trafficType": "RV",
   "longitude": 7.150892,
   "latitude": 50.813922,
   "operatorName": "DB Station und Service AG",
   "operatorNumber": 6273,
   "status": ""
 },
 {
   "eva": 8000136,
   "ds100": "FGER",
   "ifopt": "de:06433:4802",
   "name": "Groß Gerau",
   "trafficType": "nur DPN",
   "longitude": 8.486215,
   "latitude": 49.924934,
   "operatorName": "DB Station und Service AG",
   "operatorNumber": 2299,
   "status": ""
 },
 {
   "eva": 8000137,
   "ds100": "RGR",
   "ifopt": "de:07332:1009",
   "name": "Grünstadt",
   "trafficType": "RV",
   "longitude": 8.167962,
   "latitude": 49.564384,
   "operatorName": "DB Station und Service AG",
   "operatorNumber": 2402,
   "status": ""
 },
 {
   "eva": 8000138,
   "ds100": "KGUA.KGUI",
   "ifopt": "de:05158:13970",
   "name": "Haan-Gruiten",
   "trafficType": "RV",
   "longitude": 7.010546,
   "latitude": 51.214559,
   "operatorName": "DB Station und Service AG",
   "operatorNumber": 2381,
   "status": ""
 },
 {
   "eva": 8000139,
   "ds100": "MGZB",
   "ifopt": "de:09774:2600",
   "name": "Günzburg",
   "trafficType": "FV",
   "longitude": 10.2792621,
   "latitude": 48.4605626,
   "operatorName": "DB Station und Service AG",
   "operatorNumber": 2422,
   "status": ""
 },
 {
   "eva": 8000140,
   "ds100": "FGTH",
   "ifopt": "de:06633:203095",
   "name": "Baunatal-Guntershausen",
   "trafficType": "RV",
   "longitude": 9.466997,
   "latitude": 51.229917,
   "operatorName": "DB Station und Service AG",
   "operatorNumber": 2420,
   "status": ""
 },
 {
   "eva": 8000141,
   "ds100": "TT",
   "ifopt": "de:08416:11000",
   "name": "Tübingen Hbf",
   "trafficType": "FV",
   "longitude": 9.055407,
   "latitude": 48.515811,
   "operatorName": "DB Station und Service AG",
   "operatorNumber": 6279,
   "status": ""
 },
 {
   "eva": 8000142,
   "ds100": "EHG",
   "ifopt": "de:05914:2007",
   "name": "Hagen Hbf",
   "trafficType": "FV",
   "longitude": 7.460249,
   "latitude": 51.362747,
   "operatorName": "DB Station und Service AG",
   "operatorNumber": 2457,
   "status": ""
 },
 {
   "eva": 8000143,
   "ds100": "RWGA",
   "ifopt": "de:08336:6700",
   "name": "Weil am Rhein-Gartenstadt",
   "trafficType": "nur DPN",
   "longitude": 7.616284,
   "latitude": 47.588707,
   "operatorName": "DB Station und Service AG",
   "operatorNumber": 7988,
   "status": ""
 },
 {
   "eva": 8000144,
   "ds100": "MTHB",
   "ifopt": "de:09778:3200",
   "name": "Türkheim(Bay)Bf",
   "trafficType": "RV",
   "longitude": 10.617439,
   "latitude": 48.04569,
   "operatorName": "DB Station und Service AG",
   "operatorNumber": 6287,
   "status": ""
 },
 {
   "eva": 8000145,
   "ds100": "EHLT",
   "ifopt": "de:05562:3527",
   "name": "Haltern am See",
   "trafficType": "RV",
   "longitude": 7.184366,
   "latitude": 51.737668,
   "operatorName": "DB Station und Service AG",
   "operatorNumber": 2510,
   "status": ""
 },
 {
   "eva": 8000146,
   "ds100": "RWPF",
   "ifopt": "de:08336:6706",
   "name": "Weil am Rhein-Pfädlistraße",
   "trafficType": "nur DPN",
   "longitude": 7.626493,
   "latitude": 47.589015,
   "operatorName": "DB Station und Service AG",
   "operatorNumber": 7987,
   "status": ""
 },
 {
   "eva": 8000147,
   "ds100": "AHAR",
   "ifopt": "de:02000:8000147",
   "name": "Hamburg-Harburg",
   "trafficType": "FV",
   "longitude": 9.991701,
   "latitude": 53.455908,
   "operatorName": "DB Station und Service AG",
   "operatorNumber": 2519,
   "status": ""
 },
 {
   "eva": 8000148,
   "ds100": "HHM",
   "ifopt": "de:03252:8000",
   "name": "Hameln",
   "trafficType": "RV",
   "longitude": 9.375906,
   "latitude": 52.10185,
   "operatorName": "DB Station und Service AG",
   "operatorNumber": 2525,
   "status": ""
 },
 {
   "eva": 8000149,
   "ds100": "EHM",
   "ifopt": "de:05915:7756",
   "name": "Hamm(Westf)",
   "trafficType": "FV",
   "longitude": 7.807821,
   "latitude": 51.678078,
   "operatorName": "DB Station und Service AG",
   "operatorNumber": 2528,
   "status": ""
 },
 {
   "eva": 8000150,
   "ds100": "FH.FH  N.FH  S",
   "ifopt": "de:06435:4503",
   "name": "Hanau Hbf",
   "trafficType": "FV",
   "longitude": 8.929,
   "latitude": 50.120953,
   "operatorName": "DB Station und Service AG",
   "operatorNumber": 2537,
   "status": ""
 },
 {
   "eva": 8000152,
   "ds100": "HH",
   "ifopt": "de:03241:31",
   "name": "Hannover Hbf",
   "trafficType": "FV",
   "longitude": 9.741021,
   "latitude": 52.376761,
   "operatorName": "DB Station und Service AG",
   "operatorNumber": 2545,
   "status": ""
 },
 {
   "eva": 8000154,
   "ds100": "STM",
   "ifopt": "de:10046:8000154",
   "name": "Türkismühle",
   "trafficType": "RV",
   "longitude": 7.114615,
   "latitude": 49.580358,
   "operatorName": "DB Station und Service AG",
   "operatorNumber": 6288,
   "status": ""
 },
 {
   "eva": 8000155,
   "ds100": "AHI",
   "ifopt": "de:01051:39654",
   "name": "Heide(Holst)",
   "trafficType": "FV",
   "longitude": 9.101029,
   "latitude": 54.193563,
   "operatorName": "DB Station und Service AG",
   "operatorNumber": 2625,
   "status": ""
 },
 {
   "eva": 8000156,
   "ds100": "RH",
   "ifopt": "de:08221:1160",
   "name": "Heidelberg Hbf",
   "trafficType": "FV",
   "longitude": 8.675442,
   "latitude": 49.403567,
   "operatorName": "DB Station und Service AG",
   "operatorNumber": 2628,
   "status": ""
 },
 {
   "eva": 8000157,
   "ds100": "TH",
   "ifopt": "de:08121:26",
   "name": "Heilbronn Hbf",
   "trafficType": "FV",
   "longitude": 9.207715,
   "latitude": 49.143306,
   "operatorName": "DB Station und Service AG",
   "operatorNumber": 2648,
   "status": ""
 },
 {
   "eva": 8000158,
   "ds100": "FHWD.FHWR",
   "ifopt": "de:06435:4544",
   "name": "Nidderau",
   "trafficType": "RV",
   "longitude": 8.880233,
   "latitude": 50.230826,
   "operatorName": "DB Station und Service AG",
   "operatorNumber": 2670,
   "status": ""
 },
 {
   "eva": 8000159,
   "ds100": "HHLM",
   "ifopt": "de:03154:3261",
   "name": "Helmstedt",
   "trafficType": "FV",
   "longitude": 11.010553,
   "latitude": 52.222086,
   "operatorName": "DB Station und Service AG",
   "operatorNumber": 2677,
   "status": ""
 },
 {
   "eva": 8000160,
   "ds100": "THT",
   "ifopt": "de:08437:44001",
   "name": "Herbertingen",
   "trafficType": "RV",
   "longitude": 9.414604,
   "latitude": 48.063945,
   "operatorName": "DB Station und Service AG",
   "operatorNumber": 2695,
   "status": ""
 },
 {
   "eva": 8000161,
   "ds100": "FHRB",
   "ifopt": "de:06532:11007",
   "name": "Herborn(Dillkr)",
   "trafficType": "RV",
   "longitude": 8.30814,
   "latitude": 50.684405,
   "operatorName": "DB Station und Service AG",
   "operatorNumber": 2701,
   "status": ""
 },
 {
   "eva": 8000162,
   "ds100": "EHFD",
   "ifopt": "de:05758:1380",
   "name": "Herford",
   "trafficType": "FV",
   "longitude": 8.663643,
   "latitude": 52.119609,
   "operatorName": "DB Station und Service AG",
   "operatorNumber": 2708,
   "status": ""
 },
 {
   "eva": 8000163,
   "ds100": "TTU",
   "ifopt": "de:08327:1748",
   "name": "Tuttlingen",
   "trafficType": "FV",
   "longitude": 8.798542,
   "latitude": 47.980579,
   "operatorName": "DB Station und Service AG",
   "operatorNumber": 6292,
   "status": ""
 },
 {
   "eva": 8000164,
   "ds100": "EHER",
   "ifopt": "de:05916:7501",
   "name": "Herne",
   "trafficType": "RV",
   "longitude": 7.21783,
   "latitude": 51.543652,
   "operatorName": "DB Station und Service AG",
   "operatorNumber": 2722,
   "status": ""
 },
 {
   "eva": 8000165,
   "ds100": "EHDT",
   "ifopt": "de:05562:3217",
   "name": "Hervest-Dorsten",
   "trafficType": "nur DPN",
   "longitude": 6.974167,
   "latitude": 51.67191,
   "operatorName": "DB Station und Service AG",
   "operatorNumber": 2736,
   "status": ""
 },
 {
   "eva": 8000166,
   "ds100": "HHB",
   "ifopt": "de:03156:41699",
   "name": "Herzberg(Harz)",
   "trafficType": "RV",
   "longitude": 10.329923,
   "latitude": 51.643861,
   "operatorName": "DB Station und Service AG",
   "operatorNumber": 2740,
   "status": ""
 },
 {
   "eva": 8000167,
   "ds100": "HHES",
   "ifopt": "de:03459:41892",
   "name": "Hesepe",
   "trafficType": "nur DPN",
   "longitude": 7.967599,
   "latitude": 52.439221,
   "operatorName": "DB Station und Service AG",
   "operatorNumber": 2746,
   "status": ""
 },
 {
   "eva": 8000168,
   "ds100": "HU",
   "ifopt": "de:03360:92160",
   "name": "Uelzen",
   "trafficType": "FV",
   "longitude": 10.553053,
   "latitude": 52.969781,
   "operatorName": "DB Station und Service AG",
   "operatorNumber": 6310,
   "status": ""
 },
 {
   "eva": 8000169,
   "ds100": "HHI",
   "ifopt": "de:03254:9922",
   "name": "Hildesheim Hbf",
   "trafficType": "FV",
   "longitude": 9.953497,
   "latitude": 52.160626,
   "operatorName": "DB Station und Service AG",
   "operatorNumber": 2765,
   "status": ""
 },
 {
   "eva": 8000170,
   "ds100": "TU",
   "ifopt": "de:08421:1008",
   "name": "Ulm Hbf",
   "trafficType": "FV",
   "longitude": 9.982227,
   "latitude": 48.399437,
   "operatorName": "DB Station und Service AG",
   "operatorNumber": 6323,
   "status": ""
 },
 {
   "eva": 8000171,
   "ds100": "EUN",
   "ifopt": "de:05978:11218",
   "name": "Unna",
   "trafficType": "FV",
   "longitude": 7.692858,
   "latitude": 51.538982,
   "operatorName": "DB Station und Service AG",
   "operatorNumber": 6335,
   "status": ""
 },
 {
   "eva": 8000172,
   "ds100": "FHT",
   "ifopt": "de:06437:11220",
   "name": "Höchst(Odenw)",
   "trafficType": "nur DPN",
   "longitude": 8.988549,
   "latitude": 49.794499,
   "operatorName": "DB Station und Service AG",
   "operatorNumber": 2807,
   "status": ""
 },
 {
   "eva": 8000173,
   "ds100": "NHOB",
   "ifopt": "de:09479:9579",
   "name": "Wunsiedel-Holenbrunn",
   "trafficType": "RV",
   "longitude": 12.033928,
   "latitude": 50.051113,
   "operatorName": "DB Station und Service AG",
   "operatorNumber": 6912,
   "status": ""
 },
 {
   "eva": 8000174,
   "ds100": "KV",
   "ifopt": "de:05166:22005",
   "name": "Viersen",
   "trafficType": "FV",
   "longitude": 6.403896,
   "latitude": 51.254947,
   "operatorName": "DB Station und Service AG",
   "operatorNumber": 6415,
   "status": ""
 },
 {
   "eva": 8000175,
   "ds100": "SVL",
   "ifopt": "de:10041:8000175",
   "name": "Völklingen",
   "trafficType": "RV",
   "longitude": 6.848156,
   "latitude": 49.249091,
   "operatorName": "DB Station und Service AG",
   "operatorNumber": 6445,
   "status": ""
 },
 {
   "eva": 8000176,
   "ds100": "SHO",
   "ifopt": "de:10045:8000176",
   "name": "Homburg(Saar)Hbf",
   "trafficType": "FV",
   "longitude": 7.337035,
   "latitude": 49.328082,
   "operatorName": "DB Station und Service AG",
   "operatorNumber": 2892,
   "status": ""
 },
 {
   "eva": 8000177,
   "ds100": "THB",
   "ifopt": "de:08237:5001",
   "name": "Horb",
   "trafficType": "FV",
   "longitude": 8.688982,
   "latitude": 48.441471,
   "operatorName": "DB Station und Service AG",
   "operatorNumber": 2906,
   "status": ""
 },
 {
   "eva": 8000178,
   "ds100": "KHR",
   "ifopt": "de:05362:87303",
   "name": "Horrem",
   "trafficType": "RV",
   "longitude": 6.713497,
   "latitude": 50.916249,
   "operatorName": "DB Station und Service AG",
   "operatorNumber": 2919,
   "status": ""
 },
 {
   "eva": 8000180,
   "ds100": "TWN",
   "ifopt": "de:08119:7604",
   "name": "Waiblingen",
   "trafficType": "RV",
   "longitude": 9.299882,
   "latitude": 48.826124,
   "operatorName": "DB Station und Service AG",
   "operatorNumber": 6471,
   "status": ""
 },
 {
   "eva": 8000181,
   "ds100": "AHM",
   "ifopt": "de:01054:44660",
   "name": "Husum",
   "trafficType": "FV",
   "longitude": 9.055026,
   "latitude": 54.472271,
   "operatorName": "DB Station und Service AG",
   "operatorNumber": 2953,
   "status": ""
 },
 {
   "eva": 8000182,
   "ds100": "RIM",
   "ifopt": "de:08327:1242",
   "name": "Immendingen",
   "trafficType": "FV",
   "longitude": 8.729536,
   "latitude": 47.936007,
   "operatorName": "DB Station und Service AG",
   "operatorNumber": 2982,
   "status": ""
 },
 {
   "eva": 8000183,
   "ds100": "MIH",
   "ifopt": "de:09161:9000",
   "name": "Ingolstadt Hbf",
   "trafficType": "FV",
   "longitude": 11.437337,
   "latitude": 48.744541,
   "operatorName": "DB Station und Service AG",
   "operatorNumber": 2993,
   "status": ""
 },
 {
   "eva": 8000185,
   "ds100": "HGI",
   "ifopt": "de:03151:858",
   "name": "Gifhorn",
   "trafficType": "nur DPN",
   "longitude": 10.545284,
   "latitude": 52.456155,
   "operatorName": "DB Station und Service AG",
   "operatorNumber": 2122,
   "status": ""
 },
 {
   "eva": 8000186,
   "ds100": "EIL",
   "ifopt": "de:05962:505",
   "name": "Iserlohn",
   "trafficType": "RV",
   "longitude": 7.691608,
   "latitude": 51.373294,
   "operatorName": "DB Station und Service AG",
   "operatorNumber": 3006,
   "status": ""
 },
 {
   "eva": 8000187,
   "ds100": "FWA",
   "ifopt": "de:06534:11200",
   "name": "Wallau(Lahn)",
   "trafficType": "RV",
   "longitude": 8.47001,
   "latitude": 50.922898,
   "operatorName": "DB RegioNetz Infrastruktur GmbH",
   "operatorNumber": null,
   "status": ""
 },
 {
   "eva": 8000188,
   "ds100": "KJ",
   "ifopt": "de:05358:4188",
   "name": "Jülich",
   "trafficType": "nur DPN",
   "longitude": 6.367977,
   "latitude": 50.919381,
   "operatorName": "Rurtalbahn GmbH",
   "operatorNumber": null,
   "status": ""
 },
 {
   "eva": 8000189,
   "ds100": "SKL",
   "ifopt": "de:07312:9035",
   "name": "Kaiserslautern Hbf",
   "trafficType": "FV",
   "longitude": 7.768716,
   "latitude": 49.436137,
   "operatorName": "DB Station und Service AG",
   "operatorNumber": 3082,
   "status": ""
 },
 {
   "eva": 8000190,
   "ds100": "KKAK",
   "ifopt": "de:05166:23754",
   "name": "Kaldenkirchen",
   "trafficType": "RV",
   "longitude": 6.203225,
   "latitude": 51.327184,
   "operatorName": "DB Station und Service AG",
   "operatorNumber": 3087,
   "status": ""
 },
 {
   "eva": 8000191,
   "ds100": "RK",
   "ifopt": "de:08212:90",
   "name": "Karlsruhe Hbf",
   "trafficType": "FV",
   "longitude": 8.402181,
   "latitude": 48.993515,
   "operatorName": "DB Station und Service AG",
   "operatorNumber": 3107,
   "status": ""
 },
 {
   "eva": 8000192,
   "ds100": "EWAN",
   "ifopt": "de:05916:7590",
   "name": "Wanne-Eickel Hbf",
   "trafficType": "FV",
   "longitude": 7.165783,
   "latitude": 51.531256,
   "operatorName": "DB Station und Service AG",
   "operatorNumber": 6533,
   "status": ""
 },
 {
   "eva": 8000193,
   "ds100": "FK",
   "ifopt": "de:06611:200001",
   "name": "Kassel Hbf",
   "trafficType": "RV",
   "longitude": 9.489501,
   "latitude": 51.31826,
   "operatorName": "DB Station und Service AG",
   "operatorNumber": 3124,
   "status": ""
 },
 {
   "eva": 8000194,
   "ds100": "MKFB",
   "ifopt": "de:09762:950",
   "name": "Kaufbeuren",
   "trafficType": "FV",
   "longitude": 10.629496,
   "latitude": 47.875432,
   "operatorName": "DB Station und Service AG",
   "operatorNumber": 3141,
   "status": ""
 },
 {
   "eva": 8000195,
   "ds100": "MKFG",
   "ifopt": "de:09181:503",
   "name": "Kaufering",
   "trafficType": "RV",
   "longitude": 10.854595,
   "latitude": 48.080835,
   "operatorName": "DB Station und Service AG",
   "operatorNumber": 3142,
   "status": ""
 },
 {
   "eva": 8000196,
   "ds100": "HWAR",
   "ifopt": "de:05762:8130",
   "name": "Warburg(Westf)",
   "trafficType": "FV",
   "longitude": 9.163845,
   "latitude": 51.492953,
   "operatorName": "DB Station und Service AG",
   "operatorNumber": 6537,
   "status": ""
 },
 {
   "eva": 8000197,
   "ds100": "MKP",
   "ifopt": "de:09763:99",
   "name": "Kempten(Allgäu)Hbf",
   "trafficType": "FV",
   "longitude": 10.31761,
   "latitude": 47.711745,
   "operatorName": "DB Station und Service AG",
   "operatorNumber": 3155,
   "status": ""
 },
 {
   "eva": 8000198,
   "ds100": "EKG",
   "ifopt": "de:05113:9383",
   "name": "Kettwig",
   "trafficType": "RV",
   "longitude": 6.953747,
   "latitude": 51.363375,
   "operatorName": "DB Station und Service AG",
   "operatorNumber": 3166,
   "status": ""
 },
 {
   "eva": 8000199,
   "ds100": "AK",
   "ifopt": "de:01002:49079",
   "name": "Kiel Hbf",
   "trafficType": "FV",
   "longitude": 10.131976,
   "latitude": 54.314985,
   "operatorName": "DB Station und Service AG",
   "operatorNumber": 3174,
   "status": ""
 },
 {
   "eva": 8000201,
   "ds100": "NKL",
   "ifopt": "de:09472:22900",
   "name": "Kirchenlaibach",
   "trafficType": "RV",
   "longitude": 11.776325,
   "latitude": 49.869904,
   "operatorName": "DB Station und Service AG",
   "operatorNumber": 3187,
   "status": ""
 },
 {
   "eva": 8000203,
   "ds100": "TKG",
   "ifopt": "de:08436:1159",
   "name": "Kißlegg",
   "trafficType": "RV",
   "longitude": 9.881921,
   "latitude": 47.793533,
   "operatorName": "DB Station und Service AG",
   "operatorNumber": 3211,
   "status": ""
 },
 {
   "eva": 8000204,
   "ds100": "NWDO",
   "ifopt": "de:09363:2",
   "name": "Weiden(Oberpf)",
   "trafficType": "RV",
   "longitude": 12.153846,
   "latitude": 49.67049,
   "operatorName": "DB Station und Service AG",
   "operatorNumber": 6597,
   "status": ""
 },
 {
   "eva": 8000205,
   "ds100": "KKLV",
   "ifopt": "de:05154:35739",
   "name": "Kleve",
   "trafficType": "nur DPN",
   "longitude": 6.146224,
   "latitude": 51.789734,
   "operatorName": "DB Station und Service AG",
   "operatorNumber": 3265,
   "status": ""
 },
 {
   "eva": 8000206,
   "ds100": "KKO",
   "ifopt": "de:07111:010001",
   "name": "Koblenz Hbf",
   "trafficType": "FV",
   "longitude": 7.588345,
   "latitude": 50.350929,
   "operatorName": "DB Station und Service AG",
   "operatorNumber": 3299,
   "status": ""
 },
 {
   "eva": 8000207,
   "ds100": "KK",
   "ifopt": "de:05315:11201",
   "name": "Köln Hbf",
   "trafficType": "FV",
   "longitude": 6.958729,
   "latitude": 50.94303,
   "operatorName": "DB Station und Service AG",
   "operatorNumber": 3320,
   "status": ""
 },
 {
   "eva": 8000208,
   "ds100": "KKER.KKERP",
   "ifopt": "de:05315:14201",
   "name": "Köln-Ehrenfeld",
   "trafficType": "FV",
   "longitude": 6.917276,
   "latitude": 50.951533,
   "operatorName": "DB Station und Service AG",
   "operatorNumber": 3330,
   "status": ""
 },
 {
   "eva": 8000209,
   "ds100": "KKM",
   "ifopt": "de:05315:19201",
   "name": "Köln-Mülheim",
   "trafficType": "RV",
   "longitude": 7.013295,
   "latitude": 50.957986,
   "operatorName": "DB Station und Service AG",
   "operatorNumber": 3336,
   "status": ""
 },
 {
   "eva": 8000210,
   "ds100": "FKOB",
   "ifopt": "de:06635:205466",
   "name": "Korbach Hbf",
   "trafficType": "RV",
   "longitude": 8.873229,
   "latitude": 51.278712,
   "operatorName": "DB RegioNetz Infrastruktur GmbH",
   "operatorNumber": null,
   "status": ""
 },
 {
   "eva": 8000211,
   "ds100": "KKR",
   "ifopt": "de:05114:21002",
   "name": "Krefeld Hbf",
   "trafficType": "FV",
   "longitude": 6.569885,
   "latitude": 51.325717,
   "operatorName": "DB Station und Service AG",
   "operatorNumber": 3403,
   "status": ""
 },
 {
   "eva": 8000212,
   "ds100": "KKRO",
   "ifopt": "de:05114:21590",
   "name": "Krefeld-Oppum",
   "trafficType": "RV",
   "longitude": 6.61009,
   "latitude": 51.329749,
   "operatorName": "DB Station und Service AG",
   "operatorNumber": 3405,
   "status": ""
 },
 {
   "eva": 8000213,
   "ds100": "HK",
   "ifopt": "de:03155:3532",
   "name": "Kreiensen",
   "trafficType": "FV",
   "longitude": 9.967798,
   "latitude": 51.851423,
   "operatorName": "DB Station und Service AG",
   "operatorNumber": 3407,
   "status": ""
 },
 {
   "eva": 8000214,
   "ds100": "EKT",
   "ifopt": "de:05970:10191",
   "name": "Kreuztal",
   "trafficType": "nur DPN",
   "longitude": 7.991696,
   "latitude": 50.956029,
   "operatorName": "DB Station und Service AG",
   "operatorNumber": 3420,
   "status": ""
 },
 {
   "eva": 8000215,
   "ds100": "ELAG",
   "ifopt": "de:05766:2200",
   "name": "Lage(Lippe)",
   "trafficType": "nur DPN",
   "longitude": 8.801199,
   "latitude": 51.991742,
   "operatorName": "DB Station und Service AG",
   "operatorNumber": 3491,
   "status": ""
 },
 {
   "eva": 8000216,
   "ds100": "RLA",
   "ifopt": "de:07313:8304",
   "name": "Landau(Pfalz)Hbf",
   "trafficType": "RV",
   "longitude": 8.126204,
   "latitude": 49.197741,
   "operatorName": "DB Station und Service AG",
   "operatorNumber": 3505,
   "status": ""
 },
 {
   "eva": 8000217,
   "ds100": "MLA",
   "ifopt": "de:09261:64",
   "name": "Landshut(Bay)Hbf",
   "trafficType": "RV",
   "longitude": 12.13593,
   "latitude": 48.547492,
   "operatorName": "DB Station und Service AG",
   "operatorNumber": 3513,
   "status": ""
 },
 {
   "eva": 8000218,
   "ds100": "FWG",
   "ifopt": "de:06533:11118",
   "name": "Weilburg",
   "trafficType": "RV",
   "longitude": 8.267949,
   "latitude": 50.486368,
   "operatorName": "DB Station und Service AG",
   "operatorNumber": 6612,
   "status": ""
 },
 {
   "eva": 8000220,
   "ds100": "MWH",
   "ifopt": "de:09190:41571",
   "name": "Weilheim(Oberbay)",
   "trafficType": "FV",
   "longitude": 11.14286,
   "latitude": 47.845363,
   "operatorName": "DB Station und Service AG",
   "operatorNumber": 6616,
   "status": ""
 },
 {
   "eva": 8000221,
   "ds100": "TL",
   "ifopt": "de:08128:13805",
   "name": "Lauda",
   "trafficType": "RV",
   "longitude": 9.709512,
   "latitude": 49.565385,
   "operatorName": "DB Station und Service AG",
   "operatorNumber": 3576,
   "status": ""
 },
 {
   "eva": 8000222,
   "ds100": "FLAU",
   "ifopt": "de:06535:11203",
   "name": "Lauterbach(Hess)Nord",
   "trafficType": "nur DPN",
   "longitude": 9.408055,
   "latitude": 50.643606,
   "operatorName": "DB Station und Service AG",
   "operatorNumber": 3602,
   "status": ""
 },
 {
   "eva": 8000225,
   "ds100": "HLEE",
   "ifopt": "de:03457:54173",
   "name": "Leer(Ostfriesl)",
   "trafficType": "FV",
   "longitude": 7.465283,
   "latitude": 53.23165,
   "operatorName": "DB Station und Service AG",
   "operatorNumber": 3609,
   "status": ""
 },
 {
   "eva": 8000226,
   "ds100": "HLER",
   "ifopt": "de:03241:9808",
   "name": "Lehrte",
   "trafficType": "RV",
   "longitude": 9.974599,
   "latitude": 52.376722,
   "operatorName": "DB Station und Service AG",
   "operatorNumber": 3620,
   "status": ""
 },
 {
   "eva": 8000227,
   "ds100": "ELE",
   "ifopt": "de:05962:1001",
   "name": "Letmathe",
   "trafficType": "nur DPN",
   "longitude": 7.618397,
   "latitude": 51.362838,
   "operatorName": "DB Station und Service AG",
   "operatorNumber": 3670,
   "status": ""
 },
 {
   "eva": 8000228,
   "ds100": "NLF",
   "ifopt": "de:09478:27000",
   "name": "Lichtenfels",
   "trafficType": "FV",
   "longitude": 11.059472,
   "latitude": 50.146452,
   "operatorName": "DB Station und Service AG",
   "operatorNumber": 3700,
   "status": ""
 },
 {
   "eva": 8000229,
   "ds100": "FL",
   "ifopt": "de:06533:11025",
   "name": "Limburg(Lahn)",
   "trafficType": "RV",
   "longitude": 8.062342,
   "latitude": 50.384119,
   "operatorName": "DB Station und Service AG",
   "operatorNumber": 3720,
   "status": ""
 },
 {
   "eva": 8000230,
   "ds100": "MLI",
   "ifopt": "de:09776:1546",
   "name": "Lindau Hbf",
   "trafficType": "FV",
   "longitude": 9.680469,
   "latitude": 47.544341,
   "operatorName": "DB Station und Service AG",
   "operatorNumber": 3727,
   "status": ""
 },
 {
   "eva": 8000231,
   "ds100": "TWT",
   "ifopt": "de:08128:13412",
   "name": "Wertheim",
   "trafficType": "RV",
   "longitude": 9.513095,
   "latitude": 49.762025,
   "operatorName": "DB RegioNetz Infrastruktur GmbH",
   "operatorNumber": null,
   "status": ""
 },
 {
   "eva": 8000233,
   "ds100": "HL",
   "ifopt": "de:05758:1741",
   "name": "Löhne(Westf)",
   "trafficType": "RV",
   "longitude": 8.7135,
   "latitude": 52.196653,
   "operatorName": "DB Station und Service AG",
   "operatorNumber": 3768,
   "status": ""
 },
 {
   "eva": 8000234,
   "ds100": "FLOL",
   "ifopt": "de:06531:11085",
   "name": "Lollar",
   "trafficType": "RV",
   "longitude": 8.70174,
   "latitude": 50.647936,
   "operatorName": "DB Station und Service AG",
   "operatorNumber": 3776,
   "status": ""
 },
 {
   "eva": 8000235,
   "ds100": "TLU",
   "ifopt": "de:08118:7402",
   "name": "Ludwigsburg",
   "trafficType": "FV",
   "longitude": 9.18542,
   "latitude": 48.891862,
   "operatorName": "DB Station und Service AG",
   "operatorNumber": 3833,
   "status": ""
 },
 {
   "eva": 8000236,
   "ds100": "RL.RL  T",
   "ifopt": "de:07314:2080",
   "name": "Ludwigshafen(Rh)Hbf",
   "trafficType": "FV",
   "longitude": 8.433402,
   "latitude": 49.477987,
   "operatorName": "DB Station und Service AG",
   "operatorNumber": 3837,
   "status": ""
 },
 {
   "eva": 8000237,
   "ds100": "AL",
   "ifopt": "de:01003:57819",
   "name": "Lübeck Hbf",
   "trafficType": "FV",
   "longitude": 10.669821,
   "latitude": 53.867547,
   "operatorName": "DB Station und Service AG",
   "operatorNumber": 3807,
   "status": ""
 },
 {
   "eva": 8000238,
   "ds100": "ALBG.ALBGW",
   "ifopt": "de:03355:8000238",
   "name": "Lüneburg",
   "trafficType": "FV",
   "longitude": 10.41989,
   "latitude": 53.249656,
   "operatorName": "DB Station und Service AG",
   "operatorNumber": 3855,
   "status": ""
 },
 {
   "eva": 8000239,
   "ds100": "ELUE",
   "ifopt": "de:05978:16135",
   "name": "Lünen Hbf",
   "trafficType": "RV",
   "longitude": 7.529485,
   "latitude": 51.617129,
   "operatorName": "DB Station und Service AG",
   "operatorNumber": 3856,
   "status": ""
 },
 {
   "eva": 8000240,
   "ds100": "FMZ",
   "ifopt": "de:07315:9037",
   "name": "Mainz Hbf",
   "trafficType": "FV",
   "longitude": 8.25872,
   "latitude": 50.001117,
   "operatorName": "DB Station und Service AG",
   "operatorNumber": 3898,
   "status": ""
 },
 {
   "eva": 8000241,
   "ds100": "FMB.FMB P",
   "ifopt": "de:06433:6999",
   "name": "Mainz-Bischofsheim",
   "trafficType": "RV",
   "longitude": 8.35750043,
   "latitude": 49.9932258,
   "operatorName": "DB Station und Service AG",
   "operatorNumber": 3901,
   "status": ""
 },
 {
   "eva": 8000242,
   "ds100": "EWES",
   "ifopt": "de:05170:36918",
   "name": "Wesel",
   "trafficType": "RV",
   "longitude": 6.627134,
   "latitude": 51.65584,
   "operatorName": "DB Station und Service AG",
   "operatorNumber": 6701,
   "status": ""
 },
 {
   "eva": 8000243,
   "ds100": "FMFH",
   "ifopt": "de:06634:204401",
   "name": "Malsfeld",
   "trafficType": "nur DPN",
   "longitude": 9.534833,
   "latitude": 51.097605,
   "operatorName": "DB Station und Service AG",
   "operatorNumber": 3918,
   "status": ""
 },
 {
   "eva": 8000244,
   "ds100": "RM",
   "ifopt": "de:08222:2417",
   "name": "Mannheim Hbf",
   "trafficType": "FV",
   "longitude": 8.468921,
   "latitude": 49.479354,
   "operatorName": "DB Station und Service AG",
   "operatorNumber": 3925,
   "status": ""
 },
 {
   "eva": 8000245,
   "ds100": "FWBG",
   "ifopt": "de:07143:040018",
   "name": "Westerburg",
   "trafficType": "nur DPN",
   "longitude": 7.966978,
   "latitude": 50.557642,
   "operatorName": "DB Station und Service AG",
   "operatorNumber": 6710,
   "status": ""
 },
 {
   "eva": 8000247,
   "ds100": "NMR",
   "ifopt": "de:09479:7597",
   "name": "Marktredwitz",
   "trafficType": "RV",
   "longitude": 12.082583,
   "latitude": 50.004596,
   "operatorName": "DB Station und Service AG",
   "operatorNumber": 3979,
   "status": ""
 },
 {
   "eva": 8000248,
   "ds100": "KMYO",
   "ifopt": "de:07137:030048",
   "name": "Mayen Ost",
   "trafficType": "RV",
   "longitude": 7.238939,
   "latitude": 50.329594,
   "operatorName": "DB Station und Service AG",
   "operatorNumber": 4008,
   "status": ""
 },
 {
   "eva": 8000249,
   "ds100": "MM",
   "ifopt": "de:09764:3100",
   "name": "Memmingen",
   "trafficType": "FV",
   "longitude": 10.186853,
   "latitude": 47.985581,
   "operatorName": "DB Station und Service AG",
   "operatorNumber": 4051,
   "status": ""
 },
 {
   "eva": 8000250,
   "ds100": "FW",
   "ifopt": "de:06414:6907",
   "name": "Wiesbaden Hbf",
   "trafficType": "FV",
   "longitude": 8.243731,
   "latitude": 50.070791,
   "operatorName": "DB Station und Service AG",
   "operatorNumber": 6744,
   "status": ""
 },
 {
   "eva": 8000251,
   "ds100": "EWIT",
   "ifopt": "de:05954:5469",
   "name": "Witten Hbf",
   "trafficType": "RV",
   "longitude": 7.329442,
   "latitude": 51.435544,
   "operatorName": "DB Station und Service AG",
   "operatorNumber": 6822,
   "status": ""
 },
 {
   "eva": 8000252,
   "ds100": "HM",
   "ifopt": "de:05770:4213",
   "name": "Minden(Westf)",
   "trafficType": "FV",
   "longitude": 8.934728,
   "latitude": 52.290138,
   "operatorName": "DB Station und Service AG",
   "operatorNumber": 4120,
   "status": ""
 },
 {
   "eva": 8000253,
   "ds100": "KM",
   "ifopt": "de:05116:23007",
   "name": "Mönchengladbach Hbf",
   "trafficType": "FV",
   "longitude": 6.446111,
   "latitude": 51.196583,
   "operatorName": "DB Station und Service AG",
   "operatorNumber": 4162,
   "status": ""
 },
 {
   "eva": 8000254,
   "ds100": "RWRT",
   "ifopt": "de:07334:1731",
   "name": "Wörth(Rhein)",
   "trafficType": "RV",
   "longitude": 8.273146,
   "latitude": 49.045678,
   "operatorName": "DB Station und Service AG",
   "operatorNumber": 6893,
   "status": ""
 },
 {
   "eva": 8000255,
   "ds100": "HWOH.HWOL",
   "ifopt": "de:03158:458",
   "name": "Wolfenbüttel",
   "trafficType": "RV",
   "longitude": 10.532306,
   "latitude": 52.159126,
   "operatorName": "DB Station und Service AG",
   "operatorNumber": 6850,
   "status": ""
 },
 {
   "eva": 8000256,
   "ds100": "MRBI",
   "ifopt": "de:09186:8181",
   "name": "Rohrbach(Ilm)",
   "trafficType": "RV",
   "longitude": 11.5733457,
   "latitude": 48.6065535,
   "operatorName": "DB Station und Service AG",
   "operatorNumber": 6874,
   "status": ""
 },
 {
   "eva": 8000257,
   "ds100": "FWOR",
   "ifopt": "de:07319:4415",
   "name": "Worms Hbf",
   "trafficType": "FV",
   "longitude": 8.356448,
   "latitude": 49.63494,
   "operatorName": "DB Station und Service AG",
   "operatorNumber": 6887,
   "status": ""
 },
 {
   "eva": 8000258,
   "ds100": "MMF",
   "ifopt": "de:09183:6530",
   "name": "Mühldorf(Oberbay)",
   "trafficType": "RV",
   "longitude": 12.519638,
   "latitude": 48.248208,
   "operatorName": "DB RegioNetz Infrastruktur GmbH",
   "operatorNumber": null,
   "status": ""
 },
 {
   "eva": 8000259,
   "ds100": "EMLR",
   "ifopt": "de:05117:15225",
   "name": "Mülheim(Ruhr)Hbf",
   "trafficType": "FV",
   "longitude": 6.88651,
   "latitude": 51.431342,
   "operatorName": "DB Station und Service AG",
   "operatorNumber": 4219,
   "status": ""
 },
 {
   "eva": 8000260,
   "ds100": "NWH",
   "ifopt": "de:09663:177",
   "name": "Würzburg Hbf",
   "trafficType": "FV",
   "longitude": 9.93578,
   "latitude": 49.801796,
   "operatorName": "DB Station und Service AG",
   "operatorNumber": 6945,
   "status": ""
 },
 {
   "eva": 8000261,
   "ds100": "MH",
   "ifopt": "de:09162:100",
   "name": "München Hbf",
   "trafficType": "FV",
   "longitude": 11.558335,
   "latitude": 48.140232,
   "operatorName": "DB Station und Service AG",
   "operatorNumber": 4234,
   "status": ""
 },
 {
   "eva": 8000262,
   "ds100": "MOP",
   "ifopt": "de:09162:5",
   "name": "München Ost",
   "trafficType": "FV",
   "longitude": 11.604971,
   "latitude": 48.12744,
   "operatorName": "DB Station und Service AG",
   "operatorNumber": 4241,
   "status": ""
 },
 {
   "eva": 8000263,
   "ds100": "EMST.EMSTP",
   "ifopt": "de:05515:41000",
   "name": "Münster(Westf)Hbf",
   "trafficType": "FV",
   "longitude": 7.635715,
   "latitude": 51.956566,
   "operatorName": "DB Station und Service AG",
   "operatorNumber": 4280,
   "status": ""
 },
 {
   "eva": 8000264,
   "ds100": "RNZ",
   "ifopt": "de:08225:9180",
   "name": "Mosbach-Neckarelz",
   "trafficType": "RV",
   "longitude": 9.113093,
   "latitude": 49.348484,
   "operatorName": "DB Station und Service AG",
   "operatorNumber": 4316,
   "status": ""
 },
 {
   "eva": 8000265,
   "ds100": "RNM",
   "ifopt": "de:08226:2986",
   "name": "Neckargemünd",
   "trafficType": "RV",
   "longitude": 8.788425,
   "latitude": 49.393678,
   "operatorName": "DB Station und Service AG",
   "operatorNumber": 4317,
   "status": ""
 },
 {
   "eva": 8000266,
   "ds100": "KW",
   "ifopt": "de:05124:11376",
   "name": "Wuppertal Hbf",
   "trafficType": "FV",
   "longitude": 7.149543,
   "latitude": 51.254363,
   "operatorName": "DB Station und Service AG",
   "operatorNumber": 6914,
   "status": ""
 },
 {
   "eva": 8000267,
   "ds100": "NNE",
   "ifopt": "de:09477:3524",
   "name": "Neuenmarkt-Wirsberg",
   "trafficType": "RV",
   "longitude": 11.581061,
   "latitude": 50.093676,
   "operatorName": "DB Station und Service AG",
   "operatorNumber": 4384,
   "status": ""
 },
 {
   "eva": 8000268,
   "ds100": "HWUN",
   "ifopt": "de:03241:9884",
   "name": "Wunstorf",
   "trafficType": "RV",
   "longitude": 9.450976,
   "latitude": 52.422225,
   "operatorName": "DB Station und Service AG",
   "operatorNumber": 6913,
   "status": ""
 },
 {
   "eva": 8000269,
   "ds100": "NNS",
   "ifopt": "de:09371:19000",
   "name": "Neukirchen(b Sulzb)",
   "trafficType": "RV",
   "longitude": 11.61954,
   "latitude": 49.524326,
   "operatorName": "DB Station und Service AG",
   "operatorNumber": 4406,
   "status": ""
 },
 {
   "eva": 8000271,
   "ds100": "AN",
   "ifopt": "de:01004:66023",
   "name": "Neumünster",
   "trafficType": "FV",
   "longitude": 9.979816,
   "latitude": 54.075752,
   "operatorName": "DB Station und Service AG",
   "operatorNumber": 4420,
   "status": ""
 },
 {
   "eva": 8000272,
   "ds100": "SNK",
   "ifopt": "de:10043:8000272",
   "name": "Neunkirchen(Saar)Hbf",
   "trafficType": "RV",
   "longitude": 7.176655,
   "latitude": 49.353291,
   "operatorName": "DB Station und Service AG",
   "operatorNumber": 4426,
   "status": ""
 },
 {
   "eva": 8000273,
   "ds100": "DMBH",
   "ifopt": "de:14523:433",
   "name": "Muldenberg Floßplatz",
   "trafficType": "nur DPN",
   "longitude": 12.399034,
   "latitude": 50.41569,
   "operatorName": "DB Station und Service AG",
   "operatorNumber": 4528,
   "status": ""
 },
 {
   "eva": 8000274,
   "ds100": "KN.KN  O.KN  W",
   "ifopt": "de:05162:20055",
   "name": "Neuss Hbf",
   "trafficType": "FV",
   "longitude": 6.684527,
   "latitude": 51.204351,
   "operatorName": "DB Station und Service AG",
   "operatorNumber": 4440,
   "status": ""
 },
 {
   "eva": 8000275,
   "ds100": "RN",
   "ifopt": "de:07316:3144",
   "name": "Neustadt(Weinstr)Hbf",
   "trafficType": "FV",
   "longitude": 8.140757,
   "latitude": 49.349553,
   "operatorName": "DB Station und Service AG",
   "operatorNumber": 4454,
   "status": ""
 },
 {
   "eva": 8000276,
   "ds100": "KNE",
   "ifopt": "de:07138:10107",
   "name": "Neuwied",
   "trafficType": "FV",
   "longitude": 7.473132,
   "latitude": 50.431466,
   "operatorName": "DB Station und Service AG",
   "operatorNumber": 4464,
   "status": ""
 },
 {
   "eva": 8000277,
   "ds100": "FND",
   "ifopt": "de:06440:11145",
   "name": "Nidda",
   "trafficType": "nur DPN",
   "longitude": 8.998881,
   "latitude": 50.411449,
   "operatorName": "DB Station und Service AG",
   "operatorNumber": 4471,
   "status": ""
 },
 {
   "eva": 8000278,
   "ds100": "KNL",
   "ifopt": "de:07141:050017",
   "name": "Niederlahnstein",
   "trafficType": "RV",
   "longitude": 7.599503,
   "latitude": 50.31639,
   "operatorName": "DB Station und Service AG",
   "operatorNumber": 4503,
   "status": ""
 },
 {
   "eva": 8000279,
   "ds100": "HNBG",
   "ifopt": "de:03256:67639",
   "name": "Nienburg(Weser)",
   "trafficType": "FV",
   "longitude": 9.217753,
   "latitude": 52.645566,
   "operatorName": "DB Station und Service AG",
   "operatorNumber": 4548,
   "status": ""
 },
 {
   "eva": 8000280,
   "ds100": "MNL",
   "ifopt": "de:09779:6514",
   "name": "Nördlingen",
   "trafficType": "RV",
   "longitude": 10.497863,
   "latitude": 48.850841,
   "operatorName": "DB Station und Service AG",
   "operatorNumber": 4580,
   "status": ""
 },
 {
   "eva": 8000282,
   "ds100": "HNOS",
   "ifopt": "de:03254:9926",
   "name": "Nordstemmen",
   "trafficType": "nur DPN",
   "longitude": 9.788881,
   "latitude": 52.166394,
   "operatorName": "DB Station und Service AG",
   "operatorNumber": 4581,
   "status": ""
 },
 {
   "eva": 8000283,
   "ds100": "HN",
   "ifopt": "de:03155:68704",
   "name": "Northeim(Han)",
   "trafficType": "FV",
   "longitude": 9.986618,
   "latitude": 51.703139,
   "operatorName": "DB Station und Service AG",
   "operatorNumber": 4587,
   "status": ""
 },
 {
   "eva": 8000284,
   "ds100": "NN",
   "ifopt": "de:09564:510",
   "name": "Nürnberg Hbf",
   "trafficType": "FV",
   "longitude": 11.082989,
   "latitude": 49.445616,
   "operatorName": "DB Station und Service AG",
   "operatorNumber": 4593,
   "status": ""
 },
 {
   "eva": 8000285,
   "ds100": "FORD",
   "ifopt": "de:06438:4646",
   "name": "Rödermark-Ober Roden",
   "trafficType": "RV",
   "longitude": 8.828961,
   "latitude": 49.973622,
   "operatorName": "DB Station und Service AG",
   "operatorNumber": 4615,
   "status": ""
 },
 {
   "eva": 8000286,
   "ds100": "EOB",
   "ifopt": "de:05119:14022",
   "name": "Oberhausen Hbf",
   "trafficType": "FV",
   "longitude": 6.851588,
   "latitude": 51.474878,
   "operatorName": "DB Station und Service AG",
   "operatorNumber": 4648,
   "status": ""
 },
 {
   "eva": 8000287,
   "ds100": "NOKP",
   "ifopt": "de:09475:8815",
   "name": "Oberkotzau",
   "trafficType": "RV",
   "longitude": 11.932204,
   "latitude": 50.266389,
   "operatorName": "DB Station und Service AG",
   "operatorNumber": 4658,
   "status": ""
 },
 {
   "eva": 8000288,
   "ds100": "FWB",
   "ifopt": "de:06414:11131",
   "name": "Wiesbaden-Biebrich",
   "trafficType": "nur DPN",
   "longitude": 8.236423,
   "latitude": 50.048829,
   "operatorName": "DB Station und Service AG",
   "operatorNumber": 6746,
   "status": ""
 },
 {
   "eva": 8000289,
   "ds100": "DZWM",
   "ifopt": "de:14524:1033",
   "name": "Zwickau Zentrum",
   "trafficType": "nur DPN",
   "longitude": 12.496893,
   "latitude": 50.715544,
   "operatorName": "Städtische Verkehrsbetriebe Zwickau",
   "operatorNumber": null,
   "status": ""
 },
 {
   "eva": 8000290,
   "ds100": "RO",
   "ifopt": "de:08317:14506",
   "name": "Offenburg",
   "trafficType": "FV",
   "longitude": 7.946723,
   "latitude": 48.476475,
   "operatorName": "DB Station und Service AG",
   "operatorNumber": 4745,
   "status": ""
 },
 {
   "eva": 8000291,
   "ds100": "HOLD",
   "ifopt": "de:03403:16750",
   "name": "Oldenburg(Oldb)",
   "trafficType": "FV",
   "longitude": 8.222713,
   "latitude": 53.144323,
   "operatorName": "DB Station und Service AG",
   "operatorNumber": 4765,
   "status": ""
 },
 {
   "eva": 8000292,
   "ds100": "DZWG",
   "ifopt": "de:14524:1171",
   "name": "Zwickau Stadthalle",
   "trafficType": "nur DPN",
   "longitude": 12.498056,
   "latitude": 50.70392,
   "operatorName": "Städtische Verkehrsbetriebe Zwickau",
   "operatorNumber": null,
   "status": ""
 },
 {
   "eva": 8000294,
   "ds100": "HO.HO  O.HO  U",
   "ifopt": "de:03404:71612",
   "name": "Osnabrück Hbf",
   "trafficType": "FV",
   "longitude": 8.061781,
   "latitude": 52.272851,
   "operatorName": "DB Station und Service AG",
   "operatorNumber": 4787,
   "status": ""
 },
 {
   "eva": 8000295,
   "ds100": "TO",
   "ifopt": "de:08225:8200",
   "name": "Osterburken",
   "trafficType": "RV",
   "longitude": 9.422692,
   "latitude": 49.429657,
   "operatorName": "DB Station und Service AG",
   "operatorNumber": 4790,
   "status": ""
 },
 {
   "eva": 8000297,
   "ds100": "EPD",
   "ifopt": "de:05774:7000",
   "name": "Paderborn Hbf",
   "trafficType": "FV",
   "longitude": 8.740505,
   "latitude": 51.712979,
   "operatorName": "DB Station und Service AG",
   "operatorNumber": 4846,
   "status": ""
 },
 {
   "eva": 8000298,
   "ds100": "NPA",
   "ifopt": "de:09262:156",
   "name": "Passau Hbf",
   "trafficType": "FV",
   "longitude": 13.450776,
   "latitude": 48.573632,
   "operatorName": "DB Station und Service AG",
   "operatorNumber": 4872,
   "status": ""
 },
 {
   "eva": 8000299,
   "ds100": "TPH",
   "ifopt": "de:08231:50",
   "name": "Pforzheim Hbf",
   "trafficType": "FV",
   "longitude": 8.703099,
   "latitude": 48.894152,
   "operatorName": "DB Station und Service AG",
   "operatorNumber": 4922,
   "status": ""
 },
 {
   "eva": 8000301,
   "ds100": "NPL",
   "ifopt": "de:09271:4445",
   "name": "Plattling",
   "trafficType": "FV",
   "longitude": 12.86394,
   "latitude": 48.779619,
   "operatorName": "DB Station und Service AG",
   "operatorNumber": 4952,
   "status": ""
 },
 {
   "eva": 8000302,
   "ds100": "TP",
   "ifopt": "de:08116:7802",
   "name": "Plochingen",
   "trafficType": "FV",
   "longitude": 9.41081,
   "latitude": 48.71308,
   "operatorName": "DB Station und Service AG",
   "operatorNumber": 4967,
   "status": ""
 },
 {
   "eva": 8000304,
   "ds100": "HQ",
   "ifopt": "de:03459:75000",
   "name": "Quakenbrück",
   "trafficType": "nur DPN",
   "longitude": 7.947819,
   "latitude": 52.673943,
   "operatorName": "DB Station und Service AG",
   "operatorNumber": 5066,
   "status": ""
 },
 {
   "eva": 8000306,
   "ds100": "RRA",
   "ifopt": "de:08216:1844",
   "name": "Rastatt",
   "trafficType": "FV",
   "longitude": 8.215623,
   "latitude": 48.860483,
   "operatorName": "DB Station und Service AG",
   "operatorNumber": 5125,
   "status": ""
 },
 {
   "eva": 8000307,
   "ds100": "ERE",
   "ifopt": "de:05562:3581",
   "name": "Recklinghausen Hbf",
   "trafficType": "FV",
   "longitude": 7.20349,
   "latitude": 51.616359,
   "operatorName": "DB Station und Service AG",
   "operatorNumber": 5160,
   "status": ""
 },
 {
   "eva": 8000309,
   "ds100": "NRH",
   "ifopt": "de:09362:11090",
   "name": "Regensburg Hbf",
   "trafficType": "FV",
   "longitude": 12.099617,
   "latitude": 49.011672,
   "operatorName": "DB Station und Service AG",
   "operatorNumber": 5169,
   "status": ""
 },
 {
   "eva": 8000310,
   "ds100": "KRE",
   "ifopt": "de:07131:080107",
   "name": "Remagen",
   "trafficType": "FV",
   "longitude": 7.229779,
   "latitude": 50.577215,
   "operatorName": "DB Station und Service AG",
   "operatorNumber": 5214,
   "status": ""
 },
 {
   "eva": 8000311,
   "ds100": "KRL",
   "ifopt": "de:05120:12106",
   "name": "Remscheid-Lennep",
   "trafficType": "nur DPN",
   "longitude": 7.252833,
   "latitude": 51.190724,
   "operatorName": "DB Station und Service AG",
   "operatorNumber": 5219,
   "status": ""
 },
 {
   "eva": 8000312,
   "ds100": "AR",
   "ifopt": "de:01058:76697",
   "name": "Rendsburg",
   "trafficType": "FV",
   "longitude": 9.671134,
   "latitude": 54.302262,
   "operatorName": "DB Station und Service AG",
   "operatorNumber": 5223,
   "status": ""
 },
 {
   "eva": 8000313,
   "ds100": "TRX",
   "ifopt": "de:08115:7302",
   "name": "Renningen",
   "trafficType": "RV",
   "longitude": 8.93235,
   "latitude": 48.775121,
   "operatorName": "DB Station und Service AG",
   "operatorNumber": 5226,
   "status": ""
 },
 {
   "eva": 8000314,
   "ds100": "TRE",
   "ifopt": "de:08415:22006",
   "name": "Reutlingen Hbf",
   "trafficType": "FV",
   "longitude": 9.209116,
   "latitude": 48.496079,
   "operatorName": "DB Station und Service AG",
   "operatorNumber": 5242,
   "status": ""
 },
 {
   "eva": 8000315,
   "ds100": "ERDW",
   "ifopt": "de:05754:6516",
   "name": "Rheda-Wiedenbrück",
   "trafficType": "RV",
   "longitude": 8.28665,
   "latitude": 51.857023,
   "operatorName": "DB Station und Service AG",
   "operatorNumber": 5247,
   "status": ""
 },
 {
   "eva": 8000316,
   "ds100": "HR",
   "ifopt": "de:05566:60846",
   "name": "Rheine",
   "trafficType": "FV",
   "longitude": 7.434255,
   "latitude": 52.276299,
   "operatorName": "DB Station und Service AG",
   "operatorNumber": 5251,
   "status": ""
 },
 {
   "eva": 8000317,
   "ds100": "KRH",
   "ifopt": "de:05112:16450",
   "name": "Rheinhausen",
   "trafficType": "RV",
   "longitude": 6.706484,
   "latitude": 51.393507,
   "operatorName": "DB Station und Service AG",
   "operatorNumber": 5253,
   "status": ""
 },
 {
   "eva": 8000318,
   "ds100": "KRY.KRY P",
   "ifopt": "de:05116:23023",
   "name": "Rheydt Hbf",
   "trafficType": "FV",
   "longitude": 6.439564,
   "latitude": 51.163027,
   "operatorName": "DB Station und Service AG",
   "operatorNumber": 5260,
   "status": ""
 },
 {
   "eva": 8000319,
   "ds100": "SRO",
   "ifopt": "de:10045:8000319",
   "name": "Rohrbach(Saar)",
   "trafficType": "RV",
   "longitude": 7.157395,
   "latitude": 49.276737,
   "operatorName": "DB Station und Service AG",
   "operatorNumber": 5319,
   "status": ""
 },
 {
   "eva": 8000320,
   "ds100": "MRO",
   "ifopt": "de:09163:9",
   "name": "Rosenheim",
   "trafficType": "FV",
   "longitude": 12.119202,
   "latitude": 47.850018,
   "operatorName": "DB Station und Service AG",
   "operatorNumber": 5348,
   "status": ""
 },
 {
   "eva": 8000321,
   "ds100": "AROG",
   "ifopt": "de:03357:78914",
   "name": "Rotenburg(Wümme)",
   "trafficType": "nur DPN",
   "longitude": 9.390098,
   "latitude": 53.112349,
   "operatorName": "DB Station und Service AG",
   "operatorNumber": 5380,
   "status": ""
 },
 {
   "eva": 8000322,
   "ds100": "TR",
   "ifopt": "de:08325:6584",
   "name": "Rottweil",
   "trafficType": "FV",
   "longitude": 8.639295,
   "latitude": 48.165304,
   "operatorName": "DB Station und Service AG",
   "operatorNumber": 5405,
   "status": ""
 },
 {
   "eva": 8000323,
   "ds100": "SSH",
   "ifopt": "de:10041:8000323",
   "name": "Saarbrücken Hbf",
   "trafficType": "FV",
   "longitude": 6.991021,
   "latitude": 49.241065,
   "operatorName": "DB Station und Service AG",
   "operatorNumber": 5451,
   "status": ""
 },
 {
   "eva": 8000325,
   "ds100": "HSRI",
   "ifopt": "de:03102:3284",
   "name": "Salzgitter-Ringelheim",
   "trafficType": "RV",
   "longitude": 10.31483,
   "latitude": 52.038158,
   "operatorName": "DB Station und Service AG",
   "operatorNumber": 5481,
   "status": ""
 },
 {
   "eva": 8000326,
   "ds100": "RSD",
   "ifopt": "de:07338:3430",
   "name": "Schifferstadt",
   "trafficType": "RV",
   "longitude": 8.364945,
   "latitude": 49.39291,
   "operatorName": "DB Station und Service AG",
   "operatorNumber": 5567,
   "status": ""
 },
 {
   "eva": 8000327,
   "ds100": "FWHM",
   "ifopt": "de:07331:3935",
   "name": "Wahlheim",
   "trafficType": "RV",
   "longitude": 8.09992,
   "latitude": 49.719105,
   "operatorName": "RP Eisenbahn GmbH",
   "operatorNumber": null,
   "status": ""
 },
 {
   "eva": 8000328,
   "ds100": "NSAW",
   "ifopt": "de:09472:23790",
   "name": "Schnabelwaid",
   "trafficType": "RV",
   "longitude": 11.59566,
   "latitude": 49.810453,
   "operatorName": "DB Station und Service AG",
   "operatorNumber": 5622,
   "status": ""
 },
 {
   "eva": 8000329,
   "ds100": "TSG",
   "ifopt": "de:08136:3077",
   "name": "Schwäbisch Gmünd",
   "trafficType": "FV",
   "longitude": 9.787795,
   "latitude": 48.801011,
   "operatorName": "DB Station und Service AG",
   "operatorNumber": 5699,
   "status": ""
 },
 {
   "eva": 8000330,
   "ds100": "TSHT",
   "ifopt": "de:08127:20015",
   "name": "Schwäbisch Hall-Hessental",
   "trafficType": "RV",
   "longitude": 9.767373,
   "latitude": 49.096732,
   "operatorName": "DB Station und Service AG",
   "operatorNumber": 5701,
   "status": ""
 },
 {
   "eva": 8000331,
   "ds100": "KAND",
   "ifopt": "de:07137:030039",
   "name": "Andernach",
   "trafficType": "FV",
   "longitude": 7.404839,
   "latitude": 50.434542,
   "operatorName": "DB Station und Service AG",
   "operatorNumber": 144,
   "status": ""
 },
 {
   "eva": 8000332,
   "ds100": "RFT",
   "ifopt": "de:07311:771",
   "name": "Frankenthal Hbf",
   "trafficType": "RV",
   "longitude": 8.349702,
   "latitude": 49.535567,
   "operatorName": "DB Station und Service AG",
   "operatorNumber": 1848,
   "status": ""
 },
 {
   "eva": 8000333,
   "ds100": "RHA",
   "ifopt": "de:08317:18620",
   "name": "Hausach",
   "trafficType": "FV",
   "longitude": 8.181665,
   "latitude": 48.284924,
   "operatorName": "DB Station und Service AG",
   "operatorNumber": 2601,
   "status": ""
 },
 {
   "eva": 8000334,
   "ds100": "AJ",
   "ifopt": "de:01059:47298",
   "name": "Jübek",
   "trafficType": "RV",
   "longitude": 9.405438,
   "latitude": 54.558782,
   "operatorName": "DB Station und Service AG",
   "operatorNumber": 3064,
   "status": ""
 },
 {
   "eva": 8000335,
   "ds100": "HLST",
   "ifopt": "de:03256:54304",
   "name": "Leese-Stolzenau",
   "trafficType": "nur DPN",
   "longitude": 9.110127,
   "latitude": 52.509469,
   "operatorName": "DB Station und Service AG",
   "operatorNumber": 3610,
   "status": ""
 },
 {
   "eva": 8000336,
   "ds100": "TLK",
   "ifopt": "de:08436:1190",
   "name": "Leutkirch",
   "trafficType": "RV",
   "longitude": 10.015836,
   "latitude": 47.826167,
   "operatorName": "DB Station und Service AG",
   "operatorNumber": 3689,
   "status": ""
 },
 {
   "eva": 8000337,
   "ds100": "FMBG",
   "ifopt": "de:06534:10011",
   "name": "Marburg(Lahn)",
   "trafficType": "FV",
   "longitude": 8.775014,
   "latitude": 50.819272,
   "operatorName": "DB Station und Service AG",
   "operatorNumber": 3943,
   "status": ""
 },
 {
   "eva": 8000338,
   "ds100": "MMH",
   "ifopt": "de:09778:2700",
   "name": "Mindelheim",
   "trafficType": "RV",
   "longitude": 10.501626,
   "latitude": 48.044917,
   "operatorName": "DB Station und Service AG",
   "operatorNumber": 4119,
   "status": ""
 },
 {
   "eva": 8000339,
   "ds100": "TM",
   "ifopt": "de:08236:3090",
   "name": "Mühlacker",
   "trafficType": "FV",
   "longitude": 8.846101,
   "latitude": 48.953192,
   "operatorName": "DB Station und Service AG",
   "operatorNumber": 4197,
   "status": ""
 },
 {
   "eva": 8000340,
   "ds100": "FFRH",
   "ifopt": "de:07331:5255",
   "name": "Freimersheim(Rheinh)",
   "trafficType": "RV",
   "longitude": 8.086508,
   "latitude": 49.710777,
   "operatorName": "RP Eisenbahn GmbH",
   "operatorNumber": null,
   "status": ""
 },
 {
   "eva": 8000342,
   "ds100": "HWEZ",
   "ifopt": "de:03241:5804",
   "name": "Weetzen",
   "trafficType": "RV",
   "longitude": 9.635376,
   "latitude": 52.298351,
   "operatorName": "DB Station und Service AG",
   "operatorNumber": 6578,
   "status": ""
 },
 {
   "eva": 8000343,
   "ds100": "DSCF",
   "ifopt": "de:14523:779",
   "name": "Schöneck(Vogtl) Ferienpark",
   "trafficType": "nur DPN",
   "longitude": 12.347044,
   "latitude": 50.38957,
   "operatorName": "DB Station und Service AG",
   "operatorNumber": 8017,
   "status": ""
 },
 {
   "eva": 8000344,
   "ds100": "HWTT",
   "ifopt": "de:03151:1005",
   "name": "Wittingen",
   "trafficType": "nur DPN",
   "longitude": 10.723174,
   "latitude": 52.727291,
   "operatorName": "DB Station und Service AG",
   "operatorNumber": 6833,
   "status": ""
 },
 {
   "eva": 8000346,
   "ds100": "EBK",
   "ifopt": "de:05554:60831",
   "name": "Borken(Westf)",
   "trafficType": "nur DPN",
   "longitude": 6.865279,
   "latitude": 51.848962,
   "operatorName": "DB Station und Service AG",
   "operatorNumber": 785,
   "status": ""
 },
 {
   "eva": 8000347,
   "ds100": "FSTM",
   "ifopt": "de:06440:6504",
   "name": "Glauburg-Stockheim",
   "trafficType": "RV",
   "longitude": 9.010123,
   "latitude": 50.327056,
   "operatorName": "DB Station und Service AG",
   "operatorNumber": 6033,
   "status": ""
 },
 {
   "eva": 8000348,
   "ds100": "KST.KST P",
   "ifopt": "de:05334:5766",
   "name": "Stolberg(Rheinl)Hbf",
   "trafficType": "RV",
   "longitude": 6.217478,
   "latitude": 50.79448,
   "operatorName": "DB Station und Service AG",
   "operatorNumber": 6037,
   "status": ""
 },
 {
   "eva": 8000349,
   "ds100": "FO",
   "ifopt": "de:06413:2501",
   "name": "Offenbach(Main)Hbf",
   "trafficType": "RV",
   "longitude": 8.760743,
   "latitude": 50.099264,
   "operatorName": "DB Station und Service AG",
   "operatorNumber": 4742,
   "status": ""
 },
 {
   "eva": 8000350,
   "ds100": "FAFD",
   "ifopt": "de:06535:11190",
   "name": "Alsfeld(Oberhess)",
   "trafficType": "nur DPN",
   "longitude": 9.264297,
   "latitude": 50.750962,
   "operatorName": "DB Station und Service AG",
   "operatorNumber": 65,
   "status": ""
 },
 {
   "eva": 8000351,
   "ds100": "KAK",
   "ifopt": "de:07132:090024",
   "name": "Altenkirchen(Westerwald)",
   "trafficType": "nur DPN",
   "longitude": 7.638257,
   "latitude": 50.684418,
   "operatorName": "DB Station und Service AG",
   "operatorNumber": 105,
   "status": ""
 },
 {
   "eva": 8000352,
   "ds100": "HBGM",
   "ifopt": "de:03155:4766",
   "name": "Bad Gandersheim",
   "trafficType": "RV",
   "longitude": 10.020236,
   "latitude": 51.86737,
   "operatorName": "DB Station und Service AG",
   "operatorNumber": 279,
   "status": ""
 },
 {
   "eva": 8000353,
   "ds100": "TBG",
   "ifopt": "de:08417:32109",
   "name": "Balingen(Württ)",
   "trafficType": "RV",
   "longitude": 8.850307,
   "latitude": 48.278469,
   "operatorName": "DB Station und Service AG",
   "operatorNumber": 385,
   "status": ""
 },
 {
   "eva": 8000354,
   "ds100": "HBAS",
   "ifopt": "de:03251:7512",
   "name": "Bassum",
   "trafficType": "RV",
   "longitude": 8.739924,
   "latitude": 52.847388,
   "operatorName": "DB Station und Service AG",
   "operatorNumber": 425,
   "status": ""
 },
 {
   "eva": 8000355,
   "ds100": "KBEE",
   "ifopt": "de:05362:88101",
   "name": "Bergheim(Erft)",
   "trafficType": "RV",
   "longitude": 6.646302,
   "latitude": 50.951706,
   "operatorName": "DB Station und Service AG",
   "operatorNumber": 507,
   "status": ""
 },
 {
   "eva": 8000356,
   "ds100": "RVLE",
   "ifopt": "de:08326:8324",
   "name": "Villingen-Schwenningen Eisstadion",
   "trafficType": "RV",
   "longitude": 8.528553,
   "latitude": 48.052772,
   "operatorName": "DB Station und Service AG",
   "operatorNumber": 7153,
   "status": ""
 },
 {
   "eva": 8000357,
   "ds100": "SBI",
   "ifopt": "de:10045:8000357",
   "name": "Bierbach",
   "trafficType": "RV",
   "longitude": 7.282011,
   "latitude": 49.26189,
   "operatorName": "DB Station und Service AG",
   "operatorNumber": 627,
   "status": ""
 },
 {
   "eva": 8000358,
   "ds100": "EBP.EBLA",
   "ifopt": "de:05911:5455",
   "name": "Bochum-Langendreer",
   "trafficType": "RV",
   "longitude": 7.323645,
   "latitude": 51.477992,
   "operatorName": "DB Station und Service AG",
   "operatorNumber": 730,
   "status": ""
 },
 {
   "eva": 8000359,
   "ds100": "FBOD",
   "ifopt": "de:07339:4849",
   "name": "Bodenheim",
   "trafficType": "RV",
   "longitude": 8.312491,
   "latitude": 49.929585,
   "operatorName": "DB Station und Service AG",
   "operatorNumber": 739,
   "status": ""
 },
 {
   "eva": 8000360,
   "ds100": "FBUE.FBUP",
   "ifopt": "de:06431:416",
   "name": "Bürstadt",
   "trafficType": "RV",
   "longitude": 8.459072,
   "latitude": 49.645125,
   "operatorName": "DB Station und Service AG",
   "operatorNumber": 7177,
   "status": ""
 },
 {
   "eva": 8000362,
   "ds100": "FDI",
   "ifopt": "de:06432:8456",
   "name": "Dieburg",
   "trafficType": "RV",
   "longitude": 8.839795,
   "latitude": 49.90369,
   "operatorName": "DB Station und Service AG",
   "operatorNumber": 1194,
   "status": ""
 },
 {
   "eva": 8000363,
   "ds100": "KDI",
   "ifopt": "de:05374:48501",
   "name": "Dieringhausen",
   "trafficType": "RV",
   "longitude": 7.542483,
   "latitude": 50.98542,
   "operatorName": "DB Station und Service AG",
   "operatorNumber": 1202,
   "status": ""
 },
 {
   "eva": 8000364,
   "ds100": "HVBG",
   "ifopt": "de:03153:5838",
   "name": "Vienenburg",
   "trafficType": "nur DPN",
   "longitude": 10.562174,
   "latitude": 51.955034,
   "operatorName": "DB Station und Service AG",
   "operatorNumber": 6412,
   "status": ""
 },
 {
   "eva": 8000365,
   "ds100": "NDB",
   "ifopt": "de:09571:12430",
   "name": "Dombühl",
   "trafficType": "RV",
   "longitude": 10.298523,
   "latitude": 49.25211,
   "operatorName": "DB Station und Service AG",
   "operatorNumber": 1259,
   "status": ""
 },
 {
   "eva": 8000366,
   "ds100": "RVL",
   "ifopt": "de:08326:6592",
   "name": "Villingen(Schwarzw)",
   "trafficType": "FV",
   "longitude": 8.465261,
   "latitude": 48.058022,
   "operatorName": "DB Station und Service AG",
   "operatorNumber": 6418,
   "status": ""
 },
 {
   "eva": 8000368,
   "ds100": "FWAB",
   "ifopt": "de:06634:204729",
   "name": "Wabern(Bz Kassel)",
   "trafficType": "FV",
   "longitude": 9.35804,
   "latitude": 51.103134,
   "operatorName": "DB Station und Service AG",
   "operatorNumber": 6457,
   "status": ""
 },
 {
   "eva": 8000369,
   "ds100": "REA",
   "ifopt": "de:08226:534",
   "name": "Eberbach",
   "trafficType": "RV",
   "longitude": 8.984152,
   "latitude": 49.465768,
   "operatorName": "DB Station und Service AG",
   "operatorNumber": 1432,
   "status": ""
 },
 {
   "eva": 8000370,
   "ds100": "SEG",
   "ifopt": "de:07211:2106",
   "name": "Ehrang",
   "trafficType": "RV",
   "longitude": 6.685808,
   "latitude": 49.802029,
   "operatorName": "DB Station und Service AG",
   "operatorNumber": 1488,
   "status": ""
 },
 {
   "eva": 8000371,
   "ds100": "SEI",
   "ifopt": "de:10045:8000371",
   "name": "Einöd(Saar)",
   "trafficType": "RV",
   "longitude": 7.321916,
   "latitude": 49.266663,
   "operatorName": "DB Station und Service AG",
   "operatorNumber": 1522,
   "status": ""
 },
 {
   "eva": 8000372,
   "ds100": "SENK",
   "ifopt": "de:07335:8170",
   "name": "Enkenbach",
   "trafficType": "RV",
   "longitude": 7.899501,
   "latitude": 49.489933,
   "operatorName": "DB Station und Service AG",
   "operatorNumber": 1602,
   "status": ""
 },
 {
   "eva": 8000373,
   "ds100": "REP",
   "ifopt": "de:08125:5404",
   "name": "Eppingen",
   "trafficType": "RV",
   "longitude": 8.914663,
   "latitude": 49.136001,
   "operatorName": "Albtal-Verkehrs-Gesellschaft mbH",
   "operatorNumber": null,
   "status": ""
 },
 {
   "eva": 8000374,
   "ds100": "RFHM",
   "ifopt": "de:07332:840",
   "name": "Freinsheim",
   "trafficType": "RV",
   "longitude": 8.205192,
   "latitude": 49.501493,
   "operatorName": "DB Station und Service AG",
   "operatorNumber": 1907,
   "status": ""
 },
 {
   "eva": 8000375,
   "ds100": "FGAL",
   "ifopt": "de:07339:8191",
   "name": "Gau Algesheim",
   "trafficType": "RV",
   "longitude": 8.016065,
   "latitude": 49.961432,
   "operatorName": "DB Station und Service AG",
   "operatorNumber": 2019,
   "status": ""
 },
 {
   "eva": 8000376,
   "ds100": "RGE",
   "ifopt": "de:07334:32637",
   "name": "Germersheim",
   "trafficType": "RV",
   "longitude": 8.365282,
   "latitude": 49.225402,
   "operatorName": "DB Station und Service AG",
   "operatorNumber": 2092,
   "status": ""
 },
 {
   "eva": 8000377,
   "ds100": "RWE",
   "ifopt": "de:08226:4109",
   "name": "Weinheim(Bergstr)Hbf",
   "trafficType": "FV",
   "longitude": 8.665351,
   "latitude": 49.553302,
   "operatorName": "DB Station und Service AG",
   "operatorNumber": 6622,
   "status": ""
 },
 {
   "eva": 8000378,
   "ds100": "SWRR",
   "ifopt": "de:10043:8000378",
   "name": "Wemmetsweiler Rathaus",
   "trafficType": "RV",
   "longitude": 7.085936,
   "latitude": 49.369521,
   "operatorName": "DB Station und Service AG",
   "operatorNumber": 6666,
   "status": ""
 },
 {
   "eva": 8000379,
   "ds100": "SWIH",
   "ifopt": "de:07231:40916",
   "name": "Wittlich Hbf",
   "trafficType": "FV",
   "longitude": 6.943557,
   "latitude": 49.973121,
   "operatorName": "DB Station und Service AG",
   "operatorNumber": 6834,
   "status": ""
 },
 {
   "eva": 8000380,
   "ds100": "TGL",
   "ifopt": "de:08136:1512",
   "name": "Goldshöfe",
   "trafficType": "RV",
   "longitude": 10.128254,
   "latitude": 48.894221,
   "operatorName": "DB Station und Service AG",
   "operatorNumber": 2175,
   "status": ""
 },
 {
   "eva": 8000381,
   "ds100": "RGZ",
   "ifopt": "de:08212:1521",
   "name": "Grötzingen",
   "trafficType": "RV",
   "longitude": 8.492941,
   "latitude": 49.005975,
   "operatorName": "Albtal-Verkehrs-Gesellschaft mbH",
   "operatorNumber": null,
   "status": ""
 },
 {
   "eva": 8000382,
   "ds100": "EGRN",
   "ifopt": "de:05554:16870",
   "name": "Gronau(Westf)",
   "trafficType": "RV",
   "longitude": 7.022436,
   "latitude": 52.215107,
   "operatorName": "DB Station und Service AG",
   "operatorNumber": 2288,
   "status": ""
 },